[
  {
    "type": "私立托嬰中心",
    "name": "臺北市私立怡寶優質托嬰中心",
    "address": "臺北市士林區文林路740巷9弄24號1樓",
    "phone": "(02)2835-8158",
    "longitude": "121.520719",
    "latitude": "25.103566"
  },
  {
    "type": "私立托嬰中心",
    "name": "臺北市私立孩子國托嬰中心",
    "address": "臺北市士林區承德路4段185號及187號3樓",
    "phone": "(02)2888-1541\n*101",
    "longitude": "121.522419",
    "latitude": "25.087889"
  },
  {
    "type": "私立托嬰中心",
    "name": "臺北市私立怡寶托嬰中心",
    "address": "臺北市士林區中山北路5段852號1樓",
    "phone": "(02)2836-1115",
    "longitude": "121.52649",
    "latitude": "25.102065"
  },
  {
    "type": "私立托嬰中心",
    "name": "臺北市私立怡寶資優托嬰中心",
    "address": "臺北巿士林區文林路740巷9弄2號1樓",
    "phone": "(02)2835-9818",
    "longitude": "121.520773",
    "latitude": "25.103477"
  },
  {
    "type": "私立托嬰中心",
    "name": "臺北市私立好來托嬰中心",
    "address": "臺北市士林區忠誠路2段166巷31號1樓至2樓",
    "phone": "(02)2871-8698",
    "longitude": "121.532189",
    "latitude": "25.115918"
  },
  {
    "type": "私立托嬰中心",
    "name": "臺北市私立春田托嬰中心",
    "address": "臺北市士林區磺溪街88巷6號1樓",
    "phone": "(02)2836-6515",
    "longitude": "121.523773",
    "latitude": "25.108371"
  },
  {
    "type": "私立托嬰中心",
    "name": "臺北市私立萌語天母托嬰中心",
    "address": "臺北市士林區中山北路6段405巷70號1樓",
    "phone": "(02)28718988",
    "longitude": "121.526486",
    "latitude": "25.116489"
  },
  {
    "type": "私立托嬰中心",
    "name": "臺北市私立春田天母托嬰中心",
    "address": "臺北市士林區忠誠路2段32巷9號1樓",
    "phone": "(02)2834-8523",
    "longitude": "121.529546",
    "latitude": "25.109323"
  },
  {
    "type": "私立托嬰中心",
    "name": "臺北市私立怡寶質優托嬰中心",
    "address": "臺北市士林區前港街88號1樓",
    "phone": "(02)2881-0088",
    "longitude": "121.519537",
    "latitude": "25.084979"
  },
  {
    "type": "私立托嬰中心",
    "name": "臺北市私立長藤托嬰中心",
    "address": "臺北市士林區葫蘆街140號1樓",
    "phone": "(02)28136942",
    "longitude": "121.508523",
    "latitude": "25.083402"
  },
  {
    "type": "私立托嬰中心",
    "name": "臺北市私立維薆托嬰中心",
    "address": "臺北市士林區忠誠路2段70巷13弄1號1樓",
    "phone": "(02)2831-3391",
    "longitude": "121.529846",
    "latitude": "25.111201"
  },
  {
    "type": "私立托嬰中心",
    "name": "臺北市私立道思托嬰中心",
    "address": "臺北市士林區天母北路61號及61之1號3樓",
    "phone": "(02)2873-1515",
    "longitude": "121.526921",
    "latitude": "25.121427"
  },
  {
    "type": "私立托嬰中心",
    "name": "臺北市私立好來天母托嬰中心",
    "address": "臺北市士林區士東路244號1樓",
    "phone": "(02)2871-8697",
    "longitude": "121.53536",
    "latitude": "25.112686"
  },
  {
    "type": "私立托嬰中心",
    "name": "臺北市私立孩子國萌寶托嬰中心",
    "address": "臺北市士林區承德路4段187號1樓",
    "phone": "(02)2888-1541",
    "longitude": "121.522391",
    "latitude": "25.087931"
  },
  {
    "type": "私立托嬰中心",
    "name": "臺北市立聯合醫院附設臺北市私立陽明院區員工子女托嬰中心(委託社團法人新北市嬰幼兒托育協會經營管理)",
    "address": "臺北市士林區雨聲街105號1樓(宿舍大樓西側1樓)",
    "phone": "(02)2831-5601",
    "longitude": "121.531566",
    "latitude": "25.105194"
  },
  {
    "type": "私立托嬰中心",
    "name": "臺北市私立幼天才托嬰中心",
    "address": "臺北市士林區華齡街180號1樓",
    "phone": "(02)8861-1580",
    "longitude": "121.519855",
    "latitude": "25.087261"
  },
  {
    "type": "私立托嬰中心",
    "name": "臺北市私立微笑音符托嬰中心",
    "address": "臺北市士林區中山北路七段14巷9號1樓",
    "phone": "(02)2875-6696",
    "longitude": "121.531639",
    "latitude": "25.118849"
  },
  {
    "type": "私立托嬰中心",
    "name": "臺北市私立詠荺托嬰中心",
    "address": "臺北市大同區重慶北路3段24號2樓",
    "phone": "(02)2596-1237",
    "longitude": "121.513459",
    "latitude": "25.06501"
  },
  {
    "type": "私立托嬰中心",
    "name": "臺北市私立人愛托嬰中心",
    "address": "臺北市大安區信義路3段147巷15弄27之1號1樓",
    "phone": "(02)2709-3131",
    "longitude": "121.543062",
    "latitude": "25.035178"
  },
  {
    "type": "私立托嬰中心",
    "name": "臺北市私立寶兒女成長園地托嬰中心",
    "address": "臺北市大安區復興南路2段180巷4號1樓",
    "phone": "(02)2705-1331",
    "longitude": "121.542957",
    "latitude": "25.027343"
  },
  {
    "type": "私立托嬰中心",
    "name": "臺北市私立菲力兒托嬰中心",
    "address": "臺北市大安區信義路4段265巷20弄20號1樓",
    "phone": "(02)2754-5200",
    "longitude": "121.554252",
    "latitude": "25.035049"
  },
  {
    "type": "私立托嬰中心",
    "name": "臺北市私立全家托嬰中心",
    "address": "臺北市大安區溫州街12巷2之3號1樓",
    "phone": "(02)2369-0445",
    "longitude": "121.532923",
    "latitude": "25.025642"
  },
  {
    "type": "私立托嬰中心",
    "name": "臺北市私立芽芽托嬰中心",
    "address": "臺北市大安區仁愛路4段151巷25號3樓",
    "phone": "(02)2775-5358\n(02)2775-2339",
    "longitude": "121.551856",
    "latitude": "25.039552"
  },
  {
    "type": "私立托嬰中心",
    "name": "臺北市私立陽光小屋托嬰中心",
    "address": "臺北市大安區瑞安街31巷5之2號1樓",
    "phone": "(02)2755-1866",
    "longitude": "121.544306",
    "latitude": "25.030709"
  },
  {
    "type": "私立托嬰中心",
    "name": "臺北市私立小磊心托嬰中心",
    "address": "臺北市大安區四維路76巷11號1樓",
    "phone": "(02)2700-1189",
    "longitude": "121.547248",
    "latitude": "25.034445"
  },
  {
    "type": "私立托嬰中心",
    "name": "臺北市私立吉事達康博喜托嬰中心",
    "address": "臺北市大安區敦化南路2段200巷20號1樓及22號1樓",
    "phone": "(02)2738-1616\n(02)2735-1211\n(02)2735-6161",
    "longitude": "121.547394",
    "latitude": "25.022793"
  },
  {
    "type": "私立托嬰中心",
    "name": "臺北市私立華康托嬰中心",
    "address": "臺北市大安區金華街223之5號及223之9號2樓",
    "phone": "(02)2391-4431\n(02)3393-3780",
    "longitude": "121.529304",
    "latitude": "25.029855"
  },
  {
    "type": "私立托嬰中心",
    "name": "臺北市私立愷特托嬰中心",
    "address": "臺北市大安區光復南路260巷29號1樓",
    "phone": "(02)2781-3545",
    "longitude": "121.555753",
    "latitude": "25.040202"
  },
  {
    "type": "私立托嬰中心",
    "name": "臺北市私立凱瑞莎托嬰中心",
    "address": "臺北市大安區延吉街257號1樓",
    "phone": "(02)2702-2828",
    "longitude": "121.556589",
    "latitude": "25.034528"
  },
  {
    "type": "私立托嬰中心",
    "name": "臺北市私立亞瑟王皇家托嬰中心",
    "address": "臺北市大安區潮州街108號1樓",
    "phone": "(02)2358-4018",
    "longitude": "121.525966",
    "latitude": "25.028859"
  },
  {
    "type": "私立托嬰中心",
    "name": "臺北市私立滿兒圓蒙特梭利托嬰中心",
    "address": "臺北市大安區安和路1段135巷14號1樓",
    "phone": "(02)2754-3196",
    "longitude": "121.553471",
    "latitude": "25.034175"
  },
  {
    "type": "私立托嬰中心",
    "name": "臺北市私立上群蒙特梭利托嬰中心",
    "address": "臺北市大安區敦化南路2段81巷37號1樓",
    "phone": "(02)2325-0909",
    "longitude": "121.550254",
    "latitude": "25.030034"
  },
  {
    "type": "私立托嬰中心",
    "name": "臺北市私立璽愛托嬰中心",
    "address": "臺北巿大安區忠孝東路3段251巷4弄8號1樓",
    "phone": "(02)2752-5968",
    "longitude": "121.541219",
    "latitude": "25.042297"
  },
  {
    "type": "私立托嬰中心",
    "name": "臺北市私立勁寶兒大安托嬰中心",
    "address": "臺北巿大安區信義路3段147巷15弄27之1號2樓",
    "phone": "(02)2701-4094",
    "longitude": "121.543062",
    "latitude": "25.035178"
  },
  {
    "type": "私立托嬰中心",
    "name": "臺北市私立萌語托嬰中心",
    "address": "臺北市大安區安和路2段70號2樓之5",
    "phone": "(02)2703-0888",
    "longitude": "121.551756",
    "latitude": "25.030204"
  },
  {
    "type": "私立托嬰中心",
    "name": "臺北市私立芭蒂恩蒙氏家園托嬰中心",
    "address": "臺北市大安區新生南路3段19巷3之1號1樓",
    "phone": "(02)2363-1538",
    "longitude": "121.535464",
    "latitude": "25.025044"
  },
  {
    "type": "私立托嬰中心",
    "name": "臺北市私立貝蕾思地托嬰中心",
    "address": "臺北市大安區安和路1段78巷43號1樓",
    "phone": "(02)2703-0319",
    "longitude": "121.549839",
    "latitude": "25.035143"
  },
  {
    "type": "私立托嬰中心",
    "name": "臺北市私立摯愛人子托嬰中心",
    "address": "臺北市大安區大安路2段100號1樓",
    "phone": "(02)27039888",
    "longitude": "121.545888",
    "latitude": "25.030964"
  },
  {
    "type": "私立托嬰中心",
    "name": "臺北市私立小天心托嬰中心",
    "address": "臺北市大安區師大路86巷4號1樓",
    "phone": "(02)2367-8146",
    "longitude": "121.527902",
    "latitude": "25.022897"
  },
  {
    "type": "私立托嬰中心",
    "name": "臺北市私立新生蒙特梭利托嬰中心",
    "address": "臺北市大安區新生南路1段103巷7之1號1樓",
    "phone": "(02)2750-0032",
    "longitude": "121.533852",
    "latitude": "25.040751"
  },
  {
    "type": "私立托嬰中心",
    "name": "臺北市私立我們的古亭托嬰中心",
    "address": "臺北市大安區和平東路1段183巷3弄2之1號1樓",
    "phone": "(02)2391-0805",
    "longitude": "121.533238",
    "latitude": "25.026757"
  },
  {
    "type": "私立托嬰中心",
    "name": "臺北市私立凱瑞莎青田托嬰中心",
    "address": "臺北市大安區青田街6之3號1樓",
    "phone": "(02)2321-3999",
    "longitude": "121.531868",
    "latitude": "25.027895"
  },
  {
    "type": "私立托嬰中心",
    "name": "臺北市私立橘子樹寶貝托嬰中心",
    "address": "臺北市大安區瑞安街155巷2號1樓",
    "phone": "(02)2704-8288",
    "longitude": "121.539295",
    "latitude": "25.025974"
  },
  {
    "type": "私立托嬰中心",
    "name": "臺北市私立采侑托嬰中心",
    "address": "臺北市大安區羅斯福路3段333巷9號2樓及11號2樓",
    "phone": "(02)2368-1237",
    "longitude": "121.532729",
    "latitude": "25.017517"
  },
  {
    "type": "私立托嬰中心",
    "name": "臺北市私立翻轉學堂托嬰中心",
    "address": "臺北市大安區四維路160巷14號1樓",
    "phone": "(02)2704-5089",
    "longitude": "121.547167",
    "latitude": "25.028696"
  },
  {
    "type": "私立托嬰中心",
    "name": "臺北市私立天心大安托嬰中心",
    "address": "臺北市大安區新生南路3段86巷23、25號1樓",
    "phone": "(02)2363-5261",
    "longitude": "121.531891",
    "latitude": "25.018805"
  },
  {
    "type": "私立托嬰中心",
    "name": "臺北市私立幸福日光托嬰中心",
    "address": "臺北市大安區和平東路2段96巷10弄12號及14號1樓",
    "phone": "(02)2738-8987",
    "longitude": "121.540351",
    "latitude": "25.023513"
  },
  {
    "type": "私立托嬰中心",
    "name": "臺北市私立夏莉絲托嬰中心",
    "address": "臺北市大安區信義路2段44巷12號1樓",
    "phone": "(02)2358-2816",
    "longitude": "121.525479",
    "latitude": "25.033677"
  },
  {
    "type": "私立托嬰中心",
    "name": "臺北市私立萌語大安托嬰中心",
    "address": "臺北市大安區安和路1段112巷22號",
    "phone": "(02)2700-9000",
    "longitude": "121.55054",
    "latitude": "25.033802"
  },
  {
    "type": "私立托嬰中心",
    "name": "臺北市私立小樹屋托嬰中心",
    "address": "臺北市大安區和平東路2段118巷6弄22號1樓",
    "phone": "(02)2732-7324",
    "longitude": "121.541949",
    "latitude": "25.023871"
  },
  {
    "type": "私立托嬰中心",
    "name": "臺北市私立我們的中山托嬰中心",
    "address": "臺北市中山區龍江路23號2樓",
    "phone": "(02)2713-8551",
    "longitude": "121.540502",
    "latitude": "25.047861"
  },
  {
    "type": "私立托嬰中心",
    "name": "臺北市私立麗茵蒙特梭利托嬰中心",
    "address": "臺北市中山區龍江路40號2樓",
    "phone": "(02)2711-1148",
    "longitude": "121.54031",
    "latitude": "25.04896"
  },
  {
    "type": "私立托嬰中心",
    "name": "臺北市私立韋斯登托嬰中心",
    "address": "臺北市中山區合江街105巷16號1樓",
    "phone": "07010018042",
    "longitude": "121.540034",
    "latitude": "25.059781"
  },
  {
    "type": "私立托嬰中心",
    "name": "臺北市私立愛美加托嬰中心",
    "address": "臺北市中山區明水路672巷36號3樓之1、38號3樓及3樓之1",
    "phone": "(02)8502-6665",
    "longitude": "121.551734",
    "latitude": "25.083492"
  },
  {
    "type": "私立托嬰中心",
    "name": "臺北市私立松江蒙特梭利托嬰中心",
    "address": "臺北市中山區松江路124巷27號1樓",
    "phone": "(02)2563-9885   \n(02)2568-1237",
    "longitude": "121.530657",
    "latitude": "25.052658"
  },
  {
    "type": "私立托嬰中心",
    "name": "臺北市私立萌家園托嬰中心",
    "address": "臺北市中山區樂群三路56號2樓",
    "phone": "(02)8501-5820",
    "longitude": "121.552835",
    "latitude": "25.082474"
  },
  {
    "type": "私立托嬰中心",
    "name": "臺北市私立愛寶貝托嬰中心",
    "address": "臺北市中山區明水路437號1樓",
    "phone": "(02)2532-4766",
    "longitude": "121.549496",
    "latitude": "25.077506"
  },
  {
    "type": "私立托嬰中心",
    "name": "臺北市私立禾園托嬰中心",
    "address": "臺北市中山區明水路389號1樓",
    "phone": "(02)2533-1313",
    "longitude": "121.546531",
    "latitude": "25.077576"
  },
  {
    "type": "私立托嬰中心",
    "name": "臺北市私立布萊茲托嬰中心",
    "address": "臺北市中山區合江街100巷11號1樓",
    "phone": "(02)2508-1708",
    "longitude": "121.538646",
    "latitude": "25.058395"
  },
  {
    "type": "私立托嬰中心",
    "name": "臺北市私立宜家托嬰中心",
    "address": "臺北市中山區龍江路271巷3號1樓",
    "phone": "(02)2502-3122",
    "longitude": "121.541066",
    "latitude": "25.059515"
  },
  {
    "type": "私立托嬰中心",
    "name": "臺北市私立蘊品蒙特梭利托嬰中心",
    "address": "臺北市中山區明水路397巷7弄53號1樓",
    "phone": "(02)2532-2792",
    "longitude": "121.550558",
    "latitude": "25.078288"
  },
  {
    "type": "私立托嬰中心",
    "name": "臺北市私立龍江媽咪托嬰中心",
    "address": "臺北市中山區龍江路397巷10號1樓",
    "phone": "(02)2505-1725",
    "longitude": "121.541577",
    "latitude": "25.065469"
  },
  {
    "type": "私立托嬰中心",
    "name": "臺北市私立愛寶貝大直園托嬰中心",
    "address": "臺北市中山區明水路443號1樓",
    "phone": "(02)2533-6823",
    "longitude": "121.549815",
    "latitude": "25.077497"
  },
  {
    "type": "私立托嬰中心",
    "name": "臺北市私立大愛托嬰中心",
    "address": "臺北市中山區民生東路3段9巷5號及7號",
    "phone": "(02)2506-5757",
    "longitude": "121.537704",
    "latitude": "25.058924"
  },
  {
    "type": "私立托嬰中心",
    "name": "臺北市私立漢妮托嬰中心",
    "address": "臺北市中山區明水路397巷7弄9號1樓",
    "phone": "(02)8509-2613\n(02)8509-2138",
    "longitude": "121.548159",
    "latitude": "25.078154"
  },
  {
    "type": "私立托嬰中心",
    "name": "臺北市私立咕咕園托嬰中心",
    "address": "臺北市中山區明水路541號1樓",
    "phone": "(02)2533-1718",
    "longitude": "121.551863",
    "latitude": "25.078489"
  },
  {
    "type": "私立托嬰中心",
    "name": "臺北市私立真愛托嬰中心",
    "address": "臺北市中山區長安東路2段167號2樓",
    "phone": "(02)8772-6346\n(02)2740-1121",
    "longitude": "121.54064",
    "latitude": "25.048427"
  },
  {
    "type": "私立托嬰中心",
    "name": "臺北市私立卡兒堡托嬰中心",
    "address": "臺北市中山區基湖路149號1樓",
    "phone": "(02)8502-0756",
    "longitude": "121.563772",
    "latitude": "25.077963"
  },
  {
    "type": "私立托嬰中心",
    "name": "臺北市私立日光貝比托嬰中心",
    "address": "臺北市中山區中山北路2段116巷9號2樓",
    "phone": "(02)2571-7858",
    "longitude": "121.522073",
    "latitude": "25.061039"
  },
  {
    "type": "私立托嬰中心",
    "name": "臺北市私立笙愛托嬰中心",
    "address": "臺北市中山區松江路46巷9之1號2樓",
    "phone": "(02)2581-2922",
    "longitude": "121.532197",
    "latitude": "25.04802"
  },
  {
    "type": "私立托嬰中心",
    "name": "臺北市私立小哈利托嬰中心",
    "address": "臺北市中正區南昌路1段145號2樓",
    "phone": "(02)3393-3104",
    "longitude": "121.518658",
    "latitude": "25.029533"
  },
  {
    "type": "私立托嬰中心",
    "name": "臺北市私立我們的中正托嬰中心",
    "address": "臺北市中正區廈門街10號1樓",
    "phone": "(02)2364-3683",
    "longitude": "121.517765",
    "latitude": "25.026429"
  },
  {
    "type": "私立托嬰中心",
    "name": "臺北市私立宥緣托嬰中心",
    "address": "臺北市中正區杭州南路1段131巷5號2樓",
    "phone": "(02)3322-5686、0988-689668",
    "longitude": "121.525347",
    "latitude": "25.036563"
  },
  {
    "type": "私立托嬰中心",
    "name": "臺北市私立宥宜托嬰中心",
    "address": "臺北市中正區杭州南路1段131巷3號2樓",
    "phone": "(02)3322-5686",
    "longitude": "121.525231",
    "latitude": "25.036591"
  },
  {
    "type": "私立托嬰中心",
    "name": "立法院附設臺北市私立員工子女托嬰中心(委託社團法人新北市嬰幼兒托育協會經營管理)",
    "address": "臺北市中正區青島東路1-3號1樓",
    "phone": "(02)2358-8542、(02)2358-5858#2196",
    "longitude": "121.521123",
    "latitude": "25.044195"
  },
  {
    "type": "私立托嬰中心",
    "name": "臺北市私立維棠托嬰中心",
    "address": "臺北市中正區臨沂街24巷6號1樓",
    "phone": "(02)2393-8080",
    "longitude": "121.529399",
    "latitude": "25.040136"
  },
  {
    "type": "私立托嬰中心",
    "name": "臺北市私立小天心東門托嬰中心",
    "address": "臺北市中正區新生南路1段170巷14之11號1樓",
    "phone": "(02)2343-5082",
    "longitude": "121.530928",
    "latitude": "25.03417"
  },
  {
    "type": "私立托嬰中心",
    "name": "臺北市私立家森寶貝托嬰中心",
    "address": "臺北市中正區南昌路2段27號1樓",
    "phone": "(02)2322-5975",
    "longitude": "121.519777",
    "latitude": "25.028053"
  },
  {
    "type": "私立托嬰中心",
    "name": "臺北市私立快樂托嬰中心",
    "address": "臺北市內湖區民權東路6段282號2樓",
    "phone": "(02)2632-1036",
    "longitude": "121.605142",
    "latitude": "25.072213"
  },
  {
    "type": "私立托嬰中心",
    "name": "臺北市私立小小百合蒙特梭利托嬰中心",
    "address": "臺北市內湖區星雲街36號1樓及夾層樓",
    "phone": "(02)2793-8049",
    "longitude": "121.591195",
    "latitude": "25.078379"
  },
  {
    "type": "私立托嬰中心",
    "name": "臺北市私立貝比托嬰中心",
    "address": "臺北市內湖區金湖路19號1樓",
    "phone": "(02)2792-9558",
    "longitude": "121.595562",
    "latitude": "25.083314"
  },
  {
    "type": "私立托嬰中心",
    "name": "臺北市私立櫻之圓蒙特梭利托嬰中心",
    "address": "臺北市內湖區環山路1段24巷8號1樓及2樓",
    "phone": "(02)8797-5200",
    "longitude": "121.565209",
    "latitude": "25.084461"
  },
  {
    "type": "私立托嬰中心",
    "name": "臺北市私立拉斐爾托嬰中心",
    "address": "臺北市內湖區民權東路6段296巷87號1樓",
    "phone": "(02)2630-7001",
    "longitude": "121.608095",
    "latitude": "25.07063"
  },
  {
    "type": "私立托嬰中心",
    "name": "臺北市私立卡爾維德蒙特梭利托嬰中心",
    "address": "臺北市內湖區東湖路113巷50之2號1樓",
    "phone": "(02)2633-2130",
    "longitude": "121.61597",
    "latitude": "25.07073"
  },
  {
    "type": "私立托嬰中心",
    "name": "臺北市私立嘉霙托嬰中心",
    "address": "臺北市內湖區陽光街150號1樓",
    "phone": "(02)8797-2299",
    "longitude": "121.582685",
    "latitude": "25.075122"
  },
  {
    "type": "私立托嬰中心",
    "name": "臺北市私立拉斐爾天使托嬰中心",
    "address": "臺北市內湖區民權東路6段296巷31弄4號2樓",
    "phone": "(02)2632-7322",
    "longitude": "121.606278",
    "latitude": "25.071743"
  },
  {
    "type": "私立托嬰中心",
    "name": "臺北市私立斑比諾托嬰中心",
    "address": "臺北市內湖區民權東路6段190號1樓",
    "phone": "(02)2792-3235",
    "longitude": "121.594229",
    "latitude": "25.068608"
  },
  {
    "type": "私立托嬰中心",
    "name": "臺北市私立愛德芬托嬰中心",
    "address": "臺北市內湖區民權東路6段296巷48之3號1樓",
    "phone": "(02)2633-8731\n0970699628",
    "longitude": "121.607936",
    "latitude": "25.07122"
  },
  {
    "type": "私立托嬰中心",
    "name": "臺北市私立勁寶兒文德托嬰中心",
    "address": "臺北市內湖區文德路210巷10、12號1樓",
    "phone": "(02)2627-0228\n(02)2627-0538",
    "longitude": "121.583907",
    "latitude": "25.076708"
  },
  {
    "type": "私立托嬰中心",
    "name": "臺北市私立維多爾托嬰中心",
    "address": "臺北市內湖區民權東路6段296巷41號及41-1號1樓",
    "phone": "(02)2634-6475",
    "longitude": "121.606654",
    "latitude": "25.071681"
  },
  {
    "type": "私立托嬰中心",
    "name": "臺北市私立愛寶貝內湖園托嬰中心",
    "address": "臺北市內湖區內湖路2段271號及273號1樓至2樓",
    "phone": "(02)2796-2488",
    "longitude": "121.590425",
    "latitude": "25.082232"
  },
  {
    "type": "私立托嬰中心",
    "name": "臺北市私立艾兒嘉托嬰中心",
    "address": "臺北市內湖區民權東路6段296巷66之2號1樓",
    "phone": "(02)2631-0095",
    "longitude": "121.608616",
    "latitude": "25.070457"
  },
  {
    "type": "私立托嬰中心",
    "name": "臺北市私立永寶兒托嬰中心",
    "address": "臺北市內湖區民權東路六段180巷6號2樓",
    "phone": "(02)8792-5533",
    "longitude": "121.592648",
    "latitude": "25.068196"
  },
  {
    "type": "私立托嬰中心",
    "name": "臺北市私立一貳三托嬰中心",
    "address": "臺北市內湖區金莊路26號1樓",
    "phone": "(02)27908009",
    "longitude": "121.587701",
    "latitude": "25.062255"
  },
  {
    "type": "私立托嬰中心",
    "name": "臺北市私立璽典托嬰中心",
    "address": "臺北市內湖區石潭路61號1樓",
    "phone": "(02)2794-8802",
    "longitude": "121.586865",
    "latitude": "25.062801"
  },
  {
    "type": "私立托嬰中心",
    "name": "臺北市私立喬治亞托嬰中心",
    "address": "臺北市內湖區2段39之2號",
    "phone": "(02)2797-8967",
    "longitude": ", 121.579837",
    "latitude": "25.078971"
  }
]