[
  {
    "type": "公辦民營托嬰中心",
    "name": "臺北市士林托嬰中心",
    "address": "臺北市士林區義信里014鄰基河路130號1樓",
    "phone": "(02)2883-6242",
    "longitude": "121.522789",
    "latitude": "25.089144"
  },
  {
    "type": "公辦民營托嬰中心",
    "name": "臺北市大同托嬰中心",
    "address": "臺北市大同區重慶北路3段120巷2號3樓",
    "phone": "(02)2598-9926",
    "longitude": "121.513302",
    "latitude": "25.067184"
  },
  {
    "type": "公辦民營托嬰中心",
    "name": "臺北市大安托嬰中心",
    "address": "臺北市大安區羅斯福路4段21號(銘傳國小)",
    "phone": "(02)2365-6565",
    "longitude": "121.535225",
    "latitude": "25.01424"
  },
  {
    "type": "公辦民營托嬰中心",
    "name": "臺北市中山托嬰中心",
    "address": "臺北市中山區林森北路511號（新興國中）",
    "phone": "(02)2521-4118",
    "longitude": "121.525788",
    "latitude": "25.062063"
  },
  {
    "type": "公辦民營托嬰中心",
    "name": "臺北市中正托嬰中心",
    "address": "臺北市中正區詔安街29號（螢橋國小新大樓1樓）",
    "phone": "(02)2301-7171",
    "longitude": "121.514446",
    "latitude": "25.024927"
  },
  {
    "type": "公辦民營托嬰中心",
    "name": "臺北市新生托嬰中心",
    "address": "臺北市中正區新生南路1段54巷5弄2號1、2樓",
    "phone": "(02)2351-7197",
    "longitude": "121.532155",
    "latitude": "25.041408"
  },
  {
    "type": "公辦民營托嬰中心",
    "name": "臺北市內湖托嬰中心",
    "address": "臺北市內湖區內湖路1段659號2樓",
    "phone": "(02)7709-7991",
    "longitude": "121.575335",
    "latitude": "25.080257"
  },
  {
    "type": "公辦民營托嬰中心",
    "name": "臺北市大湖托嬰中心",
    "address": "臺北市內湖區大湖山莊街170號(大湖國小)",
    "phone": "(02)2794-3017",
    "longitude": "121.600361",
    "latitude": "25.088165"
  },
  {
    "type": "公辦民營托嬰中心",
    "name": "臺北市西湖托嬰中心",
    "address": "臺北市內湖區環山路1段25號忠孝樓及新忠孝樓2樓(西湖國小)",
    "phone": "(02)8797-8863",
    "longitude": "121.565679",
    "latitude": "25.0838"
  },
  {
    "type": "公辦民營托嬰中心",
    "name": "臺北市文山托嬰中心",
    "address": "臺北市文山區木柵路1段177號2樓",
    "phone": "(02)2236-1388",
    "longitude": "121.550991",
    "latitude": "24.987767"
  },
  {
    "type": "公辦民營托嬰中心",
    "name": "臺北市景美托嬰中心",
    "address": "臺北市文山區羅斯福路6段455巷28號1至2樓",
    "phone": "(02)8663-5692",
    "longitude": "121.540766",
    "latitude": "24.989982"
  },
  {
    "type": "公辦民營托嬰中心",
    "name": "臺北市興隆托嬰中心",
    "address": "臺北市文山區興隆路4段105巷49號(興隆公宅)",
    "phone": "(02)2937-4896",
    "longitude": "121.563109",
    "latitude": "24.988095"
  },
  {
    "type": "公辦民營托嬰中心",
    "name": "臺北市北投托嬰中心",
    "address": "臺北市北投區光明路22號2樓",
    "phone": "(02)2897-3848",
    "longitude": "121.499337",
    "latitude": "25.132218"
  },
  {
    "type": "公辦民營托嬰中心",
    "name": "臺北市關渡托嬰中心",
    "address": "臺北市北投區知行路212號2樓(關渡國中)",
    "phone": "(02)2858-1758",
    "longitude": "121.467358",
    "latitude": "25.119893"
  },
  {
    "type": "公辦民營托嬰中心",
    "name": "臺北市松山托嬰中心",
    "address": "臺北市松山區三民路5號(西松國小)",
    "phone": "(02)3765-1775",
    "longitude": "121.563614",
    "latitude": "25.052198"
  },
  {
    "type": "公辦民營托嬰中心",
    "name": "臺北市健康托嬰中心",
    "address": "臺北市松山區健康路323號1樓(健康公宅)",
    "phone": "(02)2761-8321",
    "longitude": "121.566963",
    "latitude": "25.054486"
  },
  {
    "type": "公辦民營托嬰中心",
    "name": "臺北市信義托嬰中心",
    "address": "臺北市信義區基隆路2段99號(三興國小)",
    "phone": "(02)2378-3232",
    "longitude": "121.558027",
    "latitude": "25.02972"
  },
  {
    "type": "公辦民營托嬰中心",
    "name": "臺北市南港托嬰中心",
    "address": "臺北市南港區東新街65號(成德國小)",
    "phone": "(02)2785-6838",
    "longitude": "121.586873",
    "latitude": "25.046893"
  },
  {
    "type": "公辦民營托嬰中心",
    "name": "臺北市萬華托嬰中心",
    "address": "臺北市萬華區成都路98號(西門國小）",
    "phone": "(02)2388-9066",
    "longitude": "121.50354",
    "latitude": "25.04324"
  },
  {
    "type": "公辦民營托嬰中心",
    "name": "臺北市萬大托嬰中心",
    "address": "臺北市萬華區西藏路201號(萬華國中)",
    "phone": "(02)2337-5687",
    "longitude": "121.498701",
    "latitude": "25.029159"
  },
  {
    "type": "公辦民營托嬰中心",
    "name": "臺北市青年托嬰中心",
    "address": "臺北市萬華區青年路188之1號(青年公宅)",
    "phone": "(02)2301-1536",
    "longitude": "121.503705",
    "latitude": "25.019841"
  }
]