[
  {
    "type": "社區公共托育家園",
    "name": "臺北市芝山社區公共托育家園",
    "address": "臺北市士林區德行東路285號",
    "phone": "(02)28385506",
    "longitude": "121.53643",
    "latitude": "25.110385"
  },
  {
    "type": "社區公共托育家園",
    "name": "臺北市葫蘆社區公共托育家園",
    "address": "臺北市士林區環河北路3段95號2樓",
    "phone": "(02)28105878",
    "longitude": "121.507026",
    "latitude": "25.083758"
  },
  {
    "type": "社區公共托育家園",
    "name": "臺北市三玉社區公共托育家園",
    "address": "臺北市士林區天母東路116號2樓",
    "phone": "(02)28745376",
    "longitude": "121.537323",
    "latitude": "25.117995"
  },
  {
    "type": "社區公共托育家園",
    "name": "臺北市百齡社區公共托育家園",
    "address": "臺北市士林區福港街205號1樓",
    "phone": "(02)28815205",
    "longitude": "121.517825",
    "latitude": "25.086206"
  },
  {
    "type": "社區公共托育家園",
    "name": "臺北市蘭雅社區公共托育家園",
    "address": "臺北市士林區磺溪街57號1樓",
    "phone": "(02)28384896",
    "longitude": "121.523146",
    "latitude": "25.108407"
  },
  {
    "type": "社區公共托育家園",
    "name": "臺北市富安社區公共托育家園",
    "address": "臺北市士林區延平北路8段135號2樓",
    "phone": "(02)28117668",
    "longitude": "121.48244",
    "latitude": "25.105862"
  },
  {
    "type": "社區公共托育家園",
    "name": "臺北市士林社區公共托育家園",
    "address": "臺北市士林區大東路165號1樓",
    "phone": "(02)28833701",
    "longitude": "121.525073",
    "latitude": "25.092834"
  },
  {
    "type": "社區公共托育家園",
    "name": "臺北市文昌社區公共托育家園",
    "address": "臺北市士林區文林路615巷20號1樓",
    "phone": "(02)28318272",
    "longitude": "121.520905",
    "latitude": "25.099616"
  },
  {
    "type": "社區公共托育家園",
    "name": "臺北市大龍社區公共托育家園",
    "address": "臺北市大同區哈密街47號",
    "phone": "(02)25950892",
    "longitude": "121.516721",
    "latitude": "25.073405"
  },
  {
    "type": "社區公共托育家園",
    "name": "臺北市永樂社區公共托育家園",
    "address": "臺北市大同區延平北路2段266號",
    "phone": "(02)25530711",
    "longitude": "121.511134",
    "latitude": "25.061693"
  },
  {
    "type": "社區公共托育家園",
    "name": "臺北市忠孝社區公共托育家園",
    "address": "臺北市大同區西寧北路32號1樓",
    "phone": "(02)25527337",
    "longitude": "121.508267",
    "latitude": "25.051233"
  },
  {
    "type": "社區公共托育家園",
    "name": "臺北市成功社區公共托育家園",
    "address": "臺北市大安區四維路198巷38弄10號1樓",
    "phone": "(02)27070857",
    "longitude": "121.545499",
    "latitude": "25.026516"
  },
  {
    "type": "社區公共托育家園",
    "name": "臺北市族中社區公共托育家園",
    "address": "臺北市大安區羅斯福路4段113巷13號1樓",
    "phone": "(02)23770039",
    "longitude": "121.538832",
    "latitude": "25.011184"
  },
  {
    "type": "社區公共托育家園",
    "name": "臺北市大安社區公共托育家園",
    "address": "臺北市大安區臥龍街129號2樓",
    "phone": "(02)27374956",
    "longitude": "121.549646",
    "latitude": "25.019507"
  },
  {
    "type": "社區公共托育家園",
    "name": "臺北市懷中社區公共托育家園",
    "address": "臺北市大安區忠孝東路3段248巷30號1樓",
    "phone": "(02)27780378",
    "longitude": "121.541208",
    "latitude": "25.040365"
  },
  {
    "type": "社區公共托育家園",
    "name": "臺北市吉林社區公共托育家園",
    "address": "臺北市中山區吉林路110號2樓",
    "phone": "(02)25114698",
    "longitude": "121.529985",
    "latitude": "25.053815"
  },
  {
    "type": "社區公共托育家園",
    "name": "臺北市大直社區公共托育家園",
    "address": "臺北市中山區大直街2號1樓",
    "phone": "(02)25530158",
    "longitude": "121.546432",
    "latitude": "25.080494"
  },
  {
    "type": "社區公共托育家園",
    "name": "臺北市北安社區公共托育家園",
    "address": "臺北市中山區明水路325號1樓",
    "phone": "(02)25534390",
    "longitude": "121.541624",
    "latitude": "25.077788"
  },
  {
    "type": "社區公共托育家園",
    "name": "臺北市濱中社區公共托育家園",
    "address": "臺北市中山區樂群二路262號1樓",
    "phone": "(02)85015418",
    "longitude": "121.560716",
    "latitude": "25.079598"
  },
  {
    "type": "社區公共托育家園",
    "name": "臺北市濱江社區公共托育家園",
    "address": "臺北市中山區樂群二路266巷99號1樓",
    "phone": "(02)85012413",
    "longitude": "121.561684",
    "latitude": "25.077313"
  },
  {
    "type": "社區公共托育家園",
    "name": "臺北市南海社區公共托育家園",
    "address": "臺北市中正區延平南路207之1號1樓",
    "phone": "(02)23113689",
    "longitude": "121.507722",
    "latitude": "25.032885"
  },
  {
    "type": "社區公共托育家園",
    "name": "臺北市文湖社區公共托育家園",
    "address": "臺北市內湖區文湖街15號",
    "phone": "(02)87978861",
    "longitude": "121.560131",
    "latitude": "25.085832"
  },
  {
    "type": "社區公共托育家園",
    "name": "臺北市麗山社區公共托育家園",
    "address": "臺北市內湖區港華街100號1樓",
    "phone": "(02)87510725",
    "longitude": "121.572469",
    "latitude": "25.083508"
  },
  {
    "type": "社區公共托育家園",
    "name": "臺北市星雲社區公共托育家園",
    "address": "臺北市內湖區星雲街161巷3號1樓",
    "phone": "(02)87922462",
    "longitude": "121.596127",
    "latitude": "25.081136"
  },
  {
    "type": "社區公共托育家園",
    "name": "臺北市新湖社區公共托育家園",
    "address": "臺北市內湖區民權東路6段138號",
    "phone": "(02)27968015",
    "longitude": "121.588719",
    "latitude": "25.068826"
  },
  {
    "type": "社區公共托育家園",
    "name": "臺北市潭美社區公共托育家園",
    "address": "臺北市內湖區行善路179號3樓",
    "phone": "(02)27936532",
    "longitude": "121.58123",
    "latitude": "25.05913"
  },
  {
    "type": "社區公共托育家園",
    "name": "臺北市瑞光社區公共托育家園",
    "address": "臺北市內湖區瑞光路162號2樓",
    "phone": "(02)26591991",
    "longitude": "121.57926",
    "latitude": "25.073435"
  },
  {
    "type": "社區公共托育家園",
    "name": "臺北市興華社區公共托育家園",
    "address": "臺北市文山區興隆路3段125巷6號",
    "phone": "(02)22305993",
    "longitude": "121.558674",
    "latitude": "24.998846"
  },
  {
    "type": "社區公共托育家園",
    "name": "臺北市萬隆社區公共托育家園",
    "address": "臺北市文山區汀洲路4段207號1樓",
    "phone": "(02)29320443",
    "longitude": "121.535611",
    "latitude": "25.003128"
  },
  {
    "type": "社區公共托育家園",
    "name": "臺北市興隆社區公共托育家園",
    "address": "臺北市文山區福興路2號",
    "phone": "(02)89315966",
    "longitude": "121.551916",
    "latitude": "25.002416"
  },
  {
    "type": "社區公共托育家園",
    "name": "臺北市萬福社區公共托育家園",
    "address": "臺北市文山區羅斯福路5段170巷32號",
    "phone": "(02)29349616",
    "longitude": "121.536742",
    "latitude": "25.004819"
  },
  {
    "type": "社區公共托育家園",
    "name": "臺北市武功社區公共托育家園",
    "address": "臺北市文山區興隆路１段68號1樓",
    "phone": "(02)29300388",
    "longitude": "121.54049",
    "latitude": "25.003889"
  },
  {
    "type": "社區公共托育家園",
    "name": "臺北市萬芳社區公共托育家園",
    "address": "臺北市文山區萬和街1號",
    "phone": "(02)22302627",
    "longitude": "121.567572",
    "latitude": "25.001315"
  },
  {
    "type": "社區公共托育家園",
    "name": "臺北市忠順社區公共托育家園",
    "address": "臺北市文山區興隆路4段109巷30弄6號",
    "phone": "(02)29362221",
    "longitude": "121.562175",
    "latitude": "24.986609"
  },
  {
    "type": "社區公共托育家園",
    "name": "臺北市辛亥社區公共托育家園",
    "address": "臺北市文山區辛亥路4段103號2樓",
    "phone": "(02)86631134",
    "longitude": "121.558549",
    "latitude": "25.006285"
  },
  {
    "type": "社區公共托育家園",
    "name": "臺北市永建社區公共托育家園",
    "address": "臺北市文山區木柵路1段311巷1號1樓",
    "phone": "(02)29392022",
    "longitude": "121.55588",
    "latitude": "24.989186"
  },
  {
    "type": "社區公共托育家園",
    "name": "臺北市溪口社區公共托育家園",
    "address": "臺北市文山區景福街225號1樓",
    "phone": "(02)29330337",
    "longitude": "121.538745",
    "latitude": "24.994114"
  },
  {
    "type": "社區公共托育家園",
    "name": "臺北市北投社區公共托育家園",
    "address": "臺北市北投區中央北路1段73號2樓",
    "phone": "(02)28962977",
    "longitude": "121.500294",
    "latitude": "25.134187"
  },
  {
    "type": "社區公共托育家園",
    "name": "臺北市桃源社區公共托育家園",
    "address": "臺北市北投區中央北路3段40巷45號1樓",
    "phone": "(02)28931077",
    "longitude": "121.484511",
    "latitude": "25.139645"
  },
  {
    "type": "社區公共托育家園",
    "name": "臺北市文北社區公共托育家園",
    "address": "臺北市北投區文林北路75巷61號1樓",
    "phone": "(02)28280362",
    "longitude": "121.517608",
    "latitude": "25.103628"
  },
  {
    "type": "社區公共托育家園",
    "name": "臺北市洲美社區公共托育家園",
    "address": "臺北市北投區福美路221號1樓",
    "phone": "(02)28280372",
    "longitude": "121.504028",
    "latitude": "25.100242"
  },
  {
    "type": "社區公共托育家園",
    "name": "臺北市稻香社區公共托育家園",
    "address": "臺北市北投區稻香路83號1樓",
    "phone": "(02)28988036",
    "longitude": "121.489014",
    "latitude": "25.141007"
  },
  {
    "type": "社區公共托育家園",
    "name": "臺北市松民社區公共托育家園",
    "address": "臺北市松山區民生東路5段163之1號2樓",
    "phone": "(02)27652003",
    "longitude": "121.562907",
    "latitude": "25.059287"
  },
  {
    "type": "社區公共托育家園",
    "name": "臺北市松山社區公共托育家園",
    "address": "臺北市松山區八德路4段746號",
    "phone": "(02)27480228",
    "longitude": "121.579269",
    "latitude": "25.051205"
  },
  {
    "type": "社區公共托育家園",
    "name": "臺北市興雅社區公共托育家園",
    "address": "臺北市信義區基隆路1段35巷47號",
    "phone": "(02)27495657",
    "longitude": "121.570545",
    "latitude": "25.047101"
  },
  {
    "type": "社區公共托育家園",
    "name": "臺北市吳興社區公共托育家園",
    "address": "臺北市信義區松仁路226號2樓",
    "phone": "(02)27580675",
    "longitude": "121.56859",
    "latitude": "25.026015"
  },
  {
    "type": "社區公共托育家園",
    "name": "臺北市舊莊社區公共托育家園",
    "address": "臺北市南港區舊莊街1段100號",
    "phone": "(02)27883976",
    "longitude": "121.619575",
    "latitude": "25.040268"
  },
  {
    "type": "社區公共托育家園",
    "name": "臺北市玉成社區公共托育家園",
    "address": "臺北市南港區向陽路31號1樓",
    "phone": "(02)26530800",
    "longitude": "121.594757",
    "latitude": "25.053615"
  },
  {
    "type": "社區公共托育家園",
    "name": "臺北市小彎社區公共托育家園",
    "address": "臺北市南港區向陽路250號1樓",
    "phone": "(02)27836583",
    "longitude": "121.593346",
    "latitude": "25.057784"
  },
  {
    "type": "社區公共托育家園",
    "name": "臺北市日善社區公共托育家園",
    "address": "臺北市萬華區東園街19之1號1樓",
    "phone": "(02)23038805",
    "longitude": "121.495699",
    "latitude": "25.027874"
  },
  {
    "type": "社區公共托育家園",
    "name": "臺北市雙園社區公共托育家園",
    "address": "臺北市萬華區興義街2號1樓(雙園國中D棟)",
    "phone": "(02)23052362",
    "longitude": "121.492722",
    "latitude": "25.027628"
  },
  {
    "type": "社區公共托育家園",
    "name": "臺北市東園社區公共托育家園",
    "address": "臺北市萬華區東園街195號(東園國小健康樓1樓)",
    "phone": "(02)23016925",
    "longitude": "121.497863",
    "latitude": "25.023142"
  },
  {
    "type": "社區公共托育家園",
    "name": "臺北市西園社區公共托育家園",
    "address": "臺北市萬華區東園街73巷65號2樓(西園國小快樂樓2樓)",
    "phone": "(02)23391231",
    "longitude": "121.498864",
    "latitude": "25.02662"
  },
  {
    "type": "社區公共托育家園",
    "name": "臺北市龍山社區公共托育家園",
    "address": "臺北市萬華區和平西路3段235號3樓(龍山國小仁愛樓3樓)",
    "phone": "(02)23083199",
    "longitude": "121.496205",
    "latitude": "25.035591"
  },
  {
    "type": "社區公共托育家園",
    "name": "臺北市亭中社區公共托育家園",
    "address": "臺北市萬華區中華路2段606號3號2樓(古亭國中第二校區)",
    "phone": "(02)23019738",
    "longitude": "121.509911",
    "latitude": "25.024574"
  },
  {
    "type": "社區公共托育家園",
    "name": "臺北市老松社區公共托育家園",
    "address": "臺北市萬華區桂林路64號1樓(老松國小)",
    "phone": "(02)23028488",
    "longitude": "121.502762",
    "latitude": "25.038063"
  }
]