[
  {
    "category": "婦產科",
    "name": "林聰賢婦產科診所",
    "region": "松山區",
    "address": "台北市松山區八德路4段345號2樓",
    "longitude": "121.56787",
    "latitude": "25.049358"
  },
  {
    "category": "婦產科",
    "name": "潘安然婦產科診所",
    "region": "松山區",
    "address": "台北市松山區南京東路5段230號3樓－8",
    "longitude": "121.565682",
    "latitude": "25.051176"
  },
  {
    "category": "婦產科",
    "name": "高國隆婦產科診所",
    "region": "松山區",
    "address": "台北市松山區八德路4段257號2樓",
    "longitude": "121.565147",
    "latitude": "25.049047"
  },
  {
    "category": "婦產科",
    "name": "傳芳婦產科診所",
    "region": "松山區",
    "address": "台北市松山區八德路4段659號．661號1．2樓",
    "longitude": "121.57562",
    "latitude": "25.050179"
  },
  {
    "category": "婦產科",
    "name": "許志學婦產科診所",
    "region": "松山區",
    "address": "台北市松山區復興南路1段43號4樓",
    "longitude": "121.544088",
    "latitude": "25.045648"
  },
  {
    "category": "婦產科",
    "name": "林慧雯婦產科診所",
    "region": "大安區",
    "address": "台北市大安區忠孝東路4段210之1號2樓",
    "longitude": "121.55258",
    "latitude": "25.041232"
  },
  {
    "category": "婦產科",
    "name": "張少萌婦產科診所",
    "region": "大安區",
    "address": "台北市大安區信義路4段199巷2號4樓之1，2",
    "longitude": "121.551526",
    "latitude": "25.033563"
  },
  {
    "category": "婦產科",
    "name": "陳秀鳳婦產科診所",
    "region": "大安區",
    "address": "台北市大安區和平東路2段191號2樓",
    "longitude": "121.542117",
    "latitude": "25.025254"
  },
  {
    "category": "婦產科",
    "name": "向安婦產科外科診所",
    "region": "大安區",
    "address": "台北市大安區和平東路1段197號1樓",
    "longitude": "121.533911",
    "latitude": "25.026354"
  },
  {
    "category": "婦產科",
    "name": "吳坤光婦產科診所",
    "region": "大安區",
    "address": "台北市大安區信義路4段59號",
    "longitude": "121.54544",
    "latitude": "25.033531"
  },
  {
    "category": "婦產科",
    "name": "博全婦產科診所",
    "region": "大安區",
    "address": "台北市大安區大安路1段18號",
    "longitude": "121.546103",
    "latitude": "25.044162"
  },
  {
    "category": "婦產科",
    "name": "馬大勳婦產科診所",
    "region": "大安區",
    "address": "台北市大安區安和路1段11號2樓之一",
    "longitude": "121.54984",
    "latitude": "25.039667"
  },
  {
    "category": "婦產科",
    "name": "張尚哲婦產科診所",
    "region": "大安區",
    "address": "台北市大安區忠孝東路4段210號4樓",
    "longitude": "121.552493",
    "latitude": "25.041233"
  },
  {
    "category": "婦產科",
    "name": "林正宗婦產科診所",
    "region": "大安區",
    "address": "台北市大安區和平東路3段100號2樓",
    "longitude": "121.551326",
    "latitude": "25.024281"
  },
  {
    "category": "婦產科",
    "name": "同心婦產科診所",
    "region": "大安區",
    "address": "台北市大安區東豐街26號",
    "longitude": "121.545404",
    "latitude": "25.035944"
  },
  {
    "category": "婦產科",
    "name": "李婦產科診所(枝盈婦幼聯合門診)",
    "region": "大安區",
    "address": "台北市大安區金山南路2段31巷9號",
    "longitude": "121.528593",
    "latitude": "25.032851"
  },
  {
    "category": "婦產科",
    "name": "陳瑞鵬婦產科診所",
    "region": "大安區",
    "address": "台北市大安區信義路4段177號2樓",
    "longitude": "121.550636",
    "latitude": "25.033425"
  },
  {
    "category": "婦產科",
    "name": "劉賢平婦產科診所",
    "region": "大安區",
    "address": "台北市大安區延吉街175號2樓",
    "longitude": "121.555457",
    "latitude": "25.038277"
  },
  {
    "category": "婦產科",
    "name": "陳惠章婦產科家庭醫學科診所",
    "region": "大安區",
    "address": "台北市大安區羅斯福路3段261號2樓",
    "longitude": "121.530311",
    "latitude": "25.018979"
  },
  {
    "category": "婦產科",
    "name": "滿意婦產科診所",
    "region": "大安區",
    "address": "台北市大安區羅斯福路3段271號3樓及3樓之1",
    "longitude": "121.530703",
    "latitude": "25.018587"
  },
  {
    "category": "婦產科",
    "name": "幸福婦產科診所",
    "region": "大安區",
    "address": "台北市大安區忠孝東路4段128號4樓．5樓",
    "longitude": "121.547999",
    "latitude": "25.041335"
  },
  {
    "category": "婦產科",
    "name": "許世賓婦產科診所",
    "region": "大安區",
    "address": "台北市大安區和平東路1段169號2樓及4樓及171號2樓",
    "longitude": "121.531789",
    "latitude": "25.02653"
  },
  {
    "category": "婦產科",
    "name": "周大中婦產科診所",
    "region": "大安區",
    "address": "台北市大安區敦化南路2段46號2樓",
    "longitude": "121.548271",
    "latitude": "25.031307"
  },
  {
    "category": "婦產科",
    "name": "康婕婦產科診所",
    "region": "大安區",
    "address": "台北市大安區光復南路240巷23號2樓",
    "longitude": "121.556467",
    "latitude": "25.040658"
  },
  {
    "category": "婦產科",
    "name": "金郁婦產科診所",
    "region": "大安區",
    "address": "台北市大安區忠孝東路4段177號7樓之4",
    "longitude": "121.550647",
    "latitude": "25.041698"
  },
  {
    "category": "婦產科",
    "name": "忠孝世賓婦產科診所",
    "region": "大安區",
    "address": "台北市大安區忠孝東路4段176號4樓",
    "longitude": "121.551346",
    "latitude": "25.041266"
  },
  {
    "category": "婦產科",
    "name": "莊國豐婦產科診所",
    "region": "大安區",
    "address": "台北市大安區和平東路1段8號2樓",
    "longitude": "121.523185",
    "latitude": "25.026834"
  },
  {
    "category": "婦產科",
    "name": "林國昭婦產科診所",
    "region": "大同區",
    "address": "台北市大同區重慶北路2段165號",
    "longitude": "121.51381",
    "latitude": "25.058664"
  },
  {
    "category": "婦產科",
    "name": "莊仁德婦產科診所",
    "region": "大同區",
    "address": "台北市大同區太原路142－6號",
    "longitude": "121.516116",
    "latitude": "25.053975"
  },
  {
    "category": "婦產科",
    "name": "聖心婦產科診所",
    "region": "大同區",
    "address": "台北市大同區保安街1–1號",
    "longitude": "121.514531",
    "latitude": "25.059408"
  },
  {
    "category": "婦產科",
    "name": "雙連婦產科小兒科診所",
    "region": "大同區",
    "address": "台北市大同區民生西路128號1樓",
    "longitude": "121.519127",
    "latitude": "25.05734"
  },
  {
    "category": "婦產科",
    "name": "梅約婦產科診所",
    "region": "大同區",
    "address": "台北市大同區長安西路88號1、2、3樓",
    "longitude": "121.519029",
    "latitude": "25.050341"
  },
  {
    "category": "婦產科",
    "name": "生泉婦產科診所",
    "region": "中山區",
    "address": "台北市中山區民生東路1段30號3、4、5樓",
    "longitude": "121.524144",
    "latitude": "25.057893"
  },
  {
    "category": "婦產科",
    "name": "楊吉銓婦產科診所",
    "region": "中山區",
    "address": "台北市中山區民生東路2段109號",
    "longitude": "121.531465",
    "latitude": "25.058104"
  },
  {
    "category": "婦產科",
    "name": "李木生婦產科診所",
    "region": "中山區",
    "address": "台北市中山區長安東路2段90號1－4樓88號4樓",
    "longitude": "121.534436",
    "latitude": "25.048327"
  },
  {
    "category": "婦產科",
    "name": "王榮華婦產科診所",
    "region": "中山區",
    "address": "台北市中山區吉林路239號3樓─1",
    "longitude": "121.530379",
    "latitude": "25.061084"
  },
  {
    "category": "婦產科",
    "name": "富生婦產科診所",
    "region": "中山區",
    "address": "台北市中山區吉林路157號",
    "longitude": "121.530344",
    "latitude": "25.058767"
  },
  {
    "category": "婦產科",
    "name": "歐婦產科診所",
    "region": "中山區",
    "address": "台北市中山區民生東路2段80號",
    "longitude": "121.530494",
    "latitude": "25.05785"
  },
  {
    "category": "婦產科",
    "name": "王三郎婦產科診所",
    "region": "中山區",
    "address": "台北市中山區中山北路2段166號－2",
    "longitude": "121.522272",
    "latitude": "25.06332"
  },
  {
    "category": "婦產科",
    "name": "蘇宋儒婦產科診所",
    "region": "中山區",
    "address": "台北市中山區北安路624號2樓",
    "longitude": "121.549108",
    "latitude": "25.082687"
  },
  {
    "category": "婦產科",
    "name": "黃大倫婦產科診所",
    "region": "中山區",
    "address": "台北市中山區長安東路2段131－3號1、2樓",
    "longitude": "121.536261",
    "latitude": "25.048506"
  },
  {
    "category": "婦產科",
    "name": "陳德駿婦產科診所",
    "region": "內湖區",
    "address": "台北市內湖區文德路8號2樓",
    "longitude": "121.579007",
    "latitude": "25.07843"
  },
  {
    "category": "婦產科",
    "name": "余正俊婦產科診所",
    "region": "內湖區",
    "address": "台北市內湖區東湖路113巷5弄12–1號3樓",
    "longitude": "121.615083",
    "latitude": "25.069147"
  },
  {
    "category": "婦產科",
    "name": "鍾兆智婦產科診所",
    "region": "內湖區",
    "address": "台北市內湖區東湖路65號1樓、2樓、地下室",
    "longitude": "121.61481",
    "latitude": "25.068762"
  },
  {
    "category": "婦產科",
    "name": "正禮婦產科診所",
    "region": "內湖區",
    "address": "台北市內湖區成功路4段36號2樓",
    "longitude": "121.59178",
    "latitude": "25.081828"
  },
  {
    "category": "婦產科",
    "name": "鴻文婦產科診所",
    "region": "內湖區",
    "address": "台北市內湖區成功路4段52號2樓",
    "longitude": "121.59228",
    "latitude": "25.082274"
  },
  {
    "category": "婦產科",
    "name": "顏鳳麟婦產科診所",
    "region": "內湖區",
    "address": "台北市內湖區成功路4段28號2樓",
    "longitude": "121.591489",
    "latitude": "25.081541"
  },
  {
    "category": "婦產科",
    "name": "內湖吳婦產科診所",
    "region": "內湖區",
    "address": "台北市內湖區金湖路403號2樓",
    "longitude": "121.604198",
    "latitude": "25.073326"
  },
  {
    "category": "婦產科",
    "name": "梓成婦產科診所",
    "region": "內湖區",
    "address": "台北市內湖區港墘路107號1樓",
    "longitude": "121.577541",
    "latitude": "25.080105"
  },
  {
    "category": "婦產科",
    "name": "謝婦產科診所",
    "region": "南港區",
    "address": "台北市南港區忠孝東路6段326號",
    "longitude": "121.590785",
    "latitude": "25.049482"
  },
  {
    "category": "婦產科",
    "name": "天慈婦產科診所",
    "region": "南港區",
    "address": "台北市南港區同德路37號1樓",
    "longitude": "121.584355",
    "latitude": "25.045441"
  },
  {
    "category": "婦產科",
    "name": "黃金喜婦產科診所",
    "region": "士林區",
    "address": "台北市士林區延平北路5段201號",
    "longitude": "121.509927",
    "latitude": "25.083603"
  },
  {
    "category": "婦產科",
    "name": "李文達婦產科診所",
    "region": "士林區",
    "address": "台北市士林區文林路458號",
    "longitude": "121.52457",
    "latitude": "25.0956"
  },
  {
    "category": "婦產科",
    "name": "士林李婦產科診所",
    "region": "士林區",
    "address": "台北市士林區小北街1－4號",
    "longitude": "121.526685",
    "latitude": "25.090264"
  },
  {
    "category": "婦產科",
    "name": "楊婦產科診所",
    "region": "士林區",
    "address": "台北市士林區小北街19號",
    "longitude": "121.526168",
    "latitude": "25.090387"
  },
  {
    "category": "婦產科",
    "name": "社子賴婦產科診所",
    "region": "士林區",
    "address": "台北市士林區延平北路5段71號",
    "longitude": "121.510582",
    "latitude": "25.080679"
  },
  {
    "category": "婦產科",
    "name": "吳婦產科診所",
    "region": "士林區",
    "address": "台北市士林區通河街117號1樓",
    "longitude": "121.521553",
    "latitude": "25.080635"
  },
  {
    "category": "婦產科",
    "name": "盧金成婦產科診所",
    "region": "士林區",
    "address": "台北市士林區忠誠路1段179號2樓",
    "longitude": "121.530486",
    "latitude": "25.108046"
  },
  {
    "category": "婦產科",
    "name": "何英世婦產科診所",
    "region": "士林區",
    "address": "台北市士林區文林路482號1樓",
    "longitude": "121.524415",
    "latitude": "25.096167"
  },
  {
    "category": "婦產科",
    "name": "鄭福山婦產科診所",
    "region": "士林區",
    "address": "台北市士林區中山北路6段256號",
    "longitude": "121.525508",
    "latitude": "25.109469"
  },
  {
    "category": "婦產科",
    "name": "蔡賡禧婦產科診所",
    "region": "北投區",
    "address": "台北市北投區石牌路1段72號",
    "longitude": "121.511401",
    "latitude": "25.113536"
  },
  {
    "category": "婦產科",
    "name": "清田婦產科家醫科診所",
    "region": "北投區",
    "address": "台北市北投區中和街268號",
    "longitude": "121.500691",
    "latitude": "25.140162"
  },
  {
    "category": "婦產科",
    "name": "佳韻婦產科診所",
    "region": "北投區",
    "address": "台北市北投區中央南路1段42號2樓",
    "longitude": "121.501203",
    "latitude": "25.132292"
  },
  {
    "category": "婦產科",
    "name": "台北安媞婦產科診所",
    "region": "北投區",
    "address": "台北市北投區中央南路1段162號1樓",
    "longitude": "121.500956",
    "latitude": "25.12941"
  },
  {
    "category": "婦產科",
    "name": "信義邱婦產科診所",
    "region": "信義區",
    "address": "台北市信義區虎林街198號",
    "longitude": "121.576883",
    "latitude": "25.03844"
  },
  {
    "category": "婦產科",
    "name": "彭婦產科診所",
    "region": "信義區",
    "address": "台北市信義區永吉路185－4號",
    "longitude": "121.572593",
    "latitude": "25.045739"
  },
  {
    "category": "婦產科",
    "name": "紀婦產科診所",
    "region": "信義區",
    "address": "台北市信義區忠孝東路5段474號1樓",
    "longitude": "121.577164",
    "latitude": "25.040664"
  },
  {
    "category": "婦產科",
    "name": "王知行婦產科診所",
    "region": "信義區",
    "address": "台北市信義區永吉路308號",
    "longitude": "121.575",
    "latitude": "25.045359"
  },
  {
    "category": "婦產科",
    "name": "柯滄銘婦產科診所",
    "region": "中正區",
    "address": "台北市中正區林森南路10號1樓",
    "longitude": "121.522617",
    "latitude": "25.042745"
  },
  {
    "category": "婦產科",
    "name": "大佳婦產科診所",
    "region": "中正區",
    "address": "台北市中正區信陽街9號2樓",
    "longitude": "121.51661",
    "latitude": "25.044699"
  },
  {
    "category": "婦產科",
    "name": "禾馨婦產科診所",
    "region": "中正區",
    "address": "台北市中正區懷寧街78號、78號2樓",
    "longitude": "121.51399",
    "latitude": "25.043099"
  },
  {
    "category": "婦產科",
    "name": "吳景志婦產科診所",
    "region": "萬華區",
    "address": "台北市萬華區康定路18之3號2樓",
    "longitude": "121.503016",
    "latitude": "25.045376"
  },
  {
    "category": "婦產科",
    "name": "益生婦產科診所",
    "region": "萬華區",
    "address": "台北市萬華區萬大路406－1號",
    "longitude": "121.498306",
    "latitude": "25.021433"
  },
  {
    "category": "婦產科",
    "name": "龍安婦產科診所",
    "region": "萬華區",
    "address": "台北市萬華區桂林路133號",
    "longitude": "121.500001",
    "latitude": "25.038574"
  },
  {
    "category": "婦產科",
    "name": "賴德崑婦產科診所",
    "region": "萬華區",
    "address": "台北市萬華區莒光路187號",
    "longitude": "121.502166",
    "latitude": "25.031078"
  },
  {
    "category": "婦產科",
    "name": "聖約翰婦產科診所",
    "region": "萬華區",
    "address": "台北市萬華區東園街175號1樓、2樓",
    "longitude": "121.497354",
    "latitude": "25.024168"
  },
  {
    "category": "婦產科",
    "name": "大元婦產科診所",
    "region": "萬華區",
    "address": "台北市萬華區西園路2段140巷8號",
    "longitude": "121.495889",
    "latitude": "25.0305"
  },
  {
    "category": "婦產科",
    "name": "中山婦產科診所",
    "region": "萬華區",
    "address": "台北市萬華區桂林路114號",
    "longitude": "121.499602",
    "latitude": "25.03837"
  },
  {
    "category": "婦產科",
    "name": "城中瑪麗安婦產科診所",
    "region": "萬華區",
    "address": "台北市萬華區成都路4號2樓、中華路1段158號",
    "longitude": "121.500998",
    "latitude": "25.043842"
  },
  {
    "category": "婦產科",
    "name": "景美蔡登元婦產科診所",
    "region": "文山區",
    "address": "台北市文山區興隆路2段189號1樓",
    "longitude": "121.549437",
    "latitude": "25.00083"
  },
  {
    "category": "婦產科",
    "name": "長欣婦產科診所",
    "region": "文山區",
    "address": "台北市文山區興隆路4段60號1樓",
    "longitude": "121.561228",
    "latitude": "24.985415"
  },
  {
    "category": "婦產科",
    "name": "台灣婦產科醫學會",
    "region": "中山區",
    "address": "台北市中山區民權西路70號5樓",
    "longitude": "121.51985",
    "latitude": "25.062657"
  },
  {
    "category": "婦產科",
    "name": "李義男婦產科診所",
    "region": "中山區",
    "address": "台北市中山區中山北路二段71號4樓",
    "longitude": "121.523053",
    "latitude": "25.057286"
  },
  {
    "category": "婦產科",
    "name": "周大中婦產科診所附設產後護理之家",
    "region": "大安區",
    "address": "台北市大安區敦化南路⼆段46號2樓",
    "longitude": "121.548271",
    "latitude": "25.031307"
  },
  {
    "category": "婦產科",
    "name": "愛群婦產科診所",
    "region": "大安區",
    "address": "台北市大安區信義路3段155號2樓之1、178號2樓、7樓",
    "longitude": "121.542824",
    "latitude": "25.033622"
  },
  {
    "category": "婦產科",
    "name": "江恩婦產科診所",
    "region": "中正區",
    "address": "台北市中正區許昌街8號",
    "longitude": "121.516958",
    "latitude": "25.045439"
  }
]