[
  {
    "name": "郵政醫院（委託中英醫療社團法人經營）",
    "address": "臺北市中正區福州街14號",
    "longitude": 121.5186982,
    "latitude": 25.02874869
  },
  {
    "name": "國立台灣大學醫學院附設醫院",
    "address": "臺北市中正區中山南路７、８號；常德街１號",
    "longitude": 121.5183428,
    "latitude": 25.03553921
  },
  {
    "name": "國立臺灣大學醫學院附設醫院兒童醫院",
    "address": "臺北市中正區中山南路8號",
    "longitude": 121.5187506,
    "latitude": 25.04434314
  },
  {
    "name": "臺北市立聯合醫院",
    "address": "臺北市大同區鄭州路145號",
    "longitude": 121.5088874,
    "latitude": 25.05069244
  },
  {
    "name": "泰安醫院",
    "address": "臺北市中山區民權東路二段９２巷２之1號(地下一樓至地上六樓)",
    "longitude": 121.5316407,
    "latitude": 25.06145984
  },
  {
    "name": "協和婦女醫院",
    "address": "臺北市中山區松江路85巷5號1，2，3，4樓、93巷6號1，2，4樓",
    "longitude": 121.5339434,
    "latitude": 25.05027331
  },
  {
    "name": "台灣基督長老教會馬偕醫療財團法人馬偕紀念醫院",
    "address": "臺北市中山區中山北路二段９２號",
    "longitude": 121.522558,
    "latitude": 25.05888423
  },
  {
    "name": "台灣基督長老教會馬偕醫療財團法人馬偕兒童醫院",
    "address": "臺北市中山區中山北路2段92號",
    "longitude": 121.522558,
    "latitude": 25.05888423
  },
  {
    "name": "長庚醫療財團法人台北長庚紀念醫院",
    "address": "臺北市松山區敦化北路199號、197號、臺北市松山區敦化北路199巷6號",
    "longitude": 121.5485556,
    "latitude": 25.05023183
  },
  {
    "name": "基督復臨安息日會醫療財團法人臺安醫院",
    "address": "臺北市松山區八德路二段424,426號",
    "longitude": 121.5444842,
    "latitude": 25.04758836
  },
  {
    "name": "博仁綜合醫院",
    "address": "臺北市松山區光復北路66號、68號地下一層、68號、68號2至7樓、68號2樓之1至7樓之1、68號2樓之2至7樓之2",
    "longitude": 121.557695,
    "latitude": 25.04990354
  },
  {
    "name": "培靈醫院",
    "address": "臺北市松山區八德路四段３５５號",
    "longitude": 121.5682821,
    "latitude": 25.04940059
  },
  {
    "name": "三軍總醫院松山分院附設民眾診療服務處",
    "address": "臺北市松山區健康路１３１號",
    "longitude": 121.5577045,
    "latitude": 25.05394015
  },
  {
    "name": "中山醫療社團法人中山醫院",
    "address": "臺北市大安區仁愛路四段112巷11號",
    "longitude": 121.5497106,
    "latitude": 25.03655173
  },
  {
    "name": "國立臺灣大學醫學院附設癌醫中心醫院",
    "address": "臺北市大安區基隆路 3段155巷57號",
    "longitude": 121.5439164,
    "latitude": 25.01449586
  },
  {
    "name": "秀傳醫院",
    "address": "臺北市大安區光復南路116巷1、3、5號1至4樓及地下1樓",
    "longitude": 121.5568623,
    "latitude": 25.04311217
  },
  {
    "name": "宏恩醫療財團法人宏恩綜合醫院",
    "address": "臺北市大安區仁愛路四段７１巷１號",
    "longitude": 121.5470295,
    "latitude": 25.03849645
  },
  {
    "name": "中心診所醫療財團法人中心綜合醫院",
    "address": "臺北市大安區忠孝東路四段７７號",
    "longitude": 121.5473297,
    "latitude": 25.04186487
  },
  {
    "name": "國泰醫療財團法人國泰綜合醫院",
    "address": "臺北市大安區仁愛路四段266巷6號，280號",
    "longitude": 121.5528014,
    "latitude": 25.03717848
  },
  {
    "name": "同仁院醫療財團法人萬華醫院",
    "address": "臺北市萬華區中華路二段６０６巷６號",
    "longitude": 121.5098259,
    "latitude": 25.02405006
  },
  {
    "name": "財團法人台灣省私立台北仁濟院附設仁濟醫院",
    "address": "臺北市萬華區廣州街２００，２４３號",
    "longitude": 121.5042335,
    "latitude": 25.03642709
  },
  {
    "name": "西園醫療社團法人西園醫院",
    "address": "臺北市萬華區西園路二段266、268、270、272、276號、185、187、189號",
    "longitude": 121.4945402,
    "latitude": 25.0277877
  },
  {
    "name": "國立臺灣大學醫學院附設醫院北護分院",
    "address": "臺北市萬華區康定路３７號、臺北市萬華區內江街87號",
    "longitude": 121.5025511,
    "latitude": 25.04222858
  },
  {
    "name": "臺北醫學大學附設醫院",
    "address": "臺北市信義區吳興街２５2號、250號",
    "longitude": 121.5636377,
    "latitude": 25.02663801
  },
  {
    "name": "新光醫療財團法人新光吳火獅紀念醫院",
    "address": "臺北市士林區文昌路95號及士商路51號、51號2樓、51號3樓、51號4樓、51號5樓、51號6樓、51號7樓、53號、55號、57號",
    "longitude": 121.5202887,
    "latitude": 25.0962409
  },
  {
    "name": "三軍總醫院北投分院附設民眾診療服務處",
    "address": "臺北市北投區新民路６０號 中和街二五○號",
    "longitude": 121.5097013,
    "latitude": 25.1398048
  },
  {
    "name": "臺北市北投健康管理醫院",
    "address": "臺北市北投區中和街2號",
    "longitude": 121.5037059,
    "latitude": 25.13758475
  },
  {
    "name": "醫療財團法人辜公亮基金會和信治癌中心醫院",
    "address": "臺北市北投區立德路１２５號",
    "longitude": 121.4720113,
    "latitude": 25.12834055
  },
  {
    "name": "振興醫療財團法人振興醫院",
    "address": "臺北市北投區振興街４５號",
    "longitude": 121.5224005,
    "latitude": 25.11754255
  },
  {
    "name": "臺北市立關渡醫院─委託臺北榮民總醫院經營",
    "address": "臺北市北投區知行路二二五巷十二號",
    "longitude": 121.4663577,
    "latitude": 25.12018758
  },
  {
    "name": "臺北榮民總醫院",
    "address": "臺北市北投區石牌路二段201號、322號",
    "longitude": 121.5191658,
    "latitude": 25.11918228
  },
  {
    "name": "中國醫藥大學附設醫院臺北分院",
    "address": "臺北市內湖區內湖路二段360號",
    "longitude": 121.5905997,
    "latitude": 25.08212491
  },
  {
    "name": "康寧醫療財團法人康寧醫院",
    "address": "臺北市內湖區成功路五段４２０巷２６號",
    "longitude": 121.6087792,
    "latitude": 25.07595162
  },
  {
    "name": "三軍總醫院附設民眾診療服務處",
    "address": "臺北市內湖區成功路二段325號；臺北市中正區汀州路3段40號",
    "longitude": 121.5919821,
    "latitude": 25.07180042
  },
  {
    "name": "臺北市立萬芳醫院－委託財團法人臺北醫學大學辦理",
    "address": "臺北市文山區興隆路三段111號",
    "longitude": 121.5583303,
    "latitude": 25.00030628
  },
  {
    "name": "景美醫院",
    "address": "臺北市文山區羅斯福路六段280號、文山區育英街2巷18號、文山區羅斯福路六段276巷1號1樓",
    "longitude": 121.5405334,
    "latitude": 24.99001925
  }
]