[
  {
    "category": "心理治療所",
    "name": "心靈之美心理治療所",
    "region": "大安區",
    "address": "臺北市大安區辛亥路1段84號2樓",
    "phone": "0916-199-507",
    "longitude": "121.53148",
    "latitude": "25.021131"
  },
  {
    "category": "心理治療所",
    "name": "初色心理治療所",
    "region": "中山區",
    "address": "臺北市中山區吉林路24號10樓、10樓之1",
    "phone": "(02)2521-0212",
    "longitude": "121.529954",
    "latitude": "25.051331"
  },
  {
    "category": "心理治療所",
    "name": "傳心心理治療所",
    "region": "松山區",
    "address": "臺北市松山區南京東路4段95號10樓",
    "phone": "(02)2716-0237",
    "longitude": "121.554319",
    "latitude": "25.051825"
  },
  {
    "category": "心理治療所",
    "name": "馨培心理治療所",
    "region": "中山區",
    "address": "臺北市中山區民生西路16號3樓之2",
    "phone": "(02)2567-0167",
    "longitude": "121.522071",
    "latitude": "25.057687"
  },
  {
    "category": "心理治療所",
    "name": "淨開心心理治療所",
    "region": "大安區",
    "address": "臺北市大安區和平東路1段218號5樓之1",
    "phone": "(02)2366-0060",
    "longitude": "121.53205",
    "latitude": "25.026116"
  },
  {
    "category": "心理治療所",
    "name": "余老師心理治療所",
    "region": "文山區",
    "address": "臺北市文山區景華街121巷4號2樓",
    "phone": "(02)2933-0016",
    "longitude": "121.54687",
    "latitude": "24.996361"
  },
  {
    "category": "心理治療所",
    "name": "福樂心理治療所",
    "region": "大安區",
    "address": "臺北市大安區信義路四段58號12樓之三",
    "phone": "0919-517-774",
    "longitude": "121.545383",
    "latitude": "25.033147"
  },
  {
    "category": "心理治療所",
    "name": "冬青心理治療所",
    "region": "中正區",
    "address": "臺北市中正區重慶南路1段121號8樓之2",
    "phone": "(02)2388-2552",
    "longitude": "121.513373",
    "latitude": "25.042224"
  },
  {
    "category": "心理治療所",
    "name": "聊聊心理治療所",
    "region": "松山區",
    "address": "臺北市松山區八德路3段106巷67號1樓",
    "phone": "(02)2579-8519",
    "longitude": "121.554457",
    "latitude": "25.044711"
  },
  {
    "category": "心理治療所",
    "name": "力人心理治療所",
    "region": "大安區",
    "address": "臺北市大安區復興南路2段139號10樓",
    "phone": "(02)2708-1412",
    "longitude": "121.54371",
    "latitude": "25.028677"
  },
  {
    "category": "心理治療所",
    "name": "宇聯心理治療所",
    "region": "大同區",
    "address": "臺北市大同區承德路2段75巷5號1樓",
    "phone": "(02)2556-5255",
    "longitude": "121.518555",
    "latitude": "25.055892"
  },
  {
    "category": "心理治療所",
    "name": "青蘊心理治療所",
    "region": "大同區",
    "address": "臺北市大同區南京西路41號4樓之6",
    "phone": "0935-827-616",
    "longitude": "121.519765",
    "latitude": "25.052924"
  },
  {
    "category": "心理治療所",
    "name": "晴風心理治療所",
    "region": "中山區",
    "address": "臺北市中山區大直街33巷5號",
    "phone": "(02)8509-1190",
    "longitude": "121.546723",
    "latitude": "25.08221"
  },
  {
    "category": "心理治療所",
    "name": "邁愷爾心理治療所",
    "region": "中山區",
    "address": "臺北市中山區復興北路50號4樓",
    "phone": "(02)2721-7577",
    "longitude": "121.543764",
    "latitude": "25.04974"
  },
  {
    "category": "心理治療所",
    "name": "天母愛舒眠心理治療所",
    "region": "北投區",
    "address": "臺北市北投區石牌路1段69號",
    "phone": "(02)2823-5600",
    "longitude": "121.51108",
    "latitude": "25.113565"
  },
  {
    "category": "心理治療所",
    "name": "知我心理治療所",
    "region": "中山區",
    "address": "臺北市中山區南京東路一段2號11樓",
    "phone": "(02)2567-1691",
    "longitude": "121.522954",
    "latitude": "25.052029"
  },
  {
    "category": "心理治療所",
    "name": "展立心理治療所",
    "region": "士林區",
    "address": "臺北市士林區中山北路5段527號3樓",
    "phone": "(02)2883-0823",
    "longitude": "121.527846",
    "latitude": "25.09408"
  },
  {
    "category": "心理治療所",
    "name": "用心說心理治療所",
    "region": "士林區",
    "address": "臺北市士林區福國路56巷17號1樓",
    "phone": "0970-570-224",
    "longitude": "121.52321",
    "latitude": "25.102761"
  },
  {
    "category": "心理治療所",
    "name": "心園心理治療所",
    "region": "大安區",
    "address": "臺北市大安區信義路3段106號8樓之6",
    "phone": "(02)2701-5095",
    "longitude": "121.538304",
    "latitude": "25.03328"
  },
  {
    "category": "心理治療所",
    "name": "賦能心理治療所",
    "region": "松山區",
    "address": "臺北市松山區民生東路5段202之3號1樓",
    "phone": "(02)2768-0668",
    "longitude": "121.564373",
    "latitude": "25.058244"
  },
  {
    "category": "心理治療所",
    "name": "覓汨心理治療所",
    "region": "信義區",
    "address": "臺北市信義區忠孝東路4段500號3樓之6",
    "phone": "(02)2758-7798",
    "longitude": "121.5617",
    "latitude": "25.040966"
  },
  {
    "category": "心理治療所",
    "name": "芯語心理治療所",
    "region": "士林區",
    "address": "臺北市士林區德行西路93巷2弄9號",
    "phone": "0909-606-383",
    "longitude": "121.521493",
    "latitude": "25.104955"
  },
  {
    "category": "心理治療所",
    "name": "山曉心理治療所",
    "region": "松山區",
    "address": "臺北市松山區南京東路4段186號12樓之8",
    "phone": "0978-150-785",
    "longitude": "121.557479",
    "latitude": "25.051358"
  },
  {
    "category": "心理治療所",
    "name": "童伴心理治療所",
    "region": "大安區",
    "address": "臺北市大安區信義路3段190號6樓",
    "phone": "(02)2755-5429",
    "longitude": "121.54282",
    "latitude": "25.033194"
  },
  {
    "category": "心理治療所",
    "name": "易思腦心理治療所",
    "region": "內湖區",
    "address": "臺北市內湖區港墘路187號10樓",
    "phone": "(02)8797-5757",
    "longitude": "121.574855",
    "latitude": "25.075868"
  },
  {
    "category": "心理治療所",
    "name": "盛開兒青心理治療所",
    "region": "中正區",
    "address": "臺北市中正區羅斯福路二段10號5樓",
    "phone": "(02)2391-3887",
    "longitude": "121.520858",
    "latitude": "25.028855"
  },
  {
    "category": "心理治療所",
    "name": "好好玩心理治療所",
    "region": "內湖區",
    "address": "臺北市內湖區康寧路三段16巷78號1樓",
    "phone": "(02)2630-5631",
    "longitude": "121.608278",
    "latitude": "25.07105"
  },
  {
    "category": "心理治療所",
    "name": "豁然心理治療所",
    "region": "信義區",
    "address": "臺北市信義區松山路421號8樓之3",
    "phone": "0937-958-918",
    "longitude": "121.578005",
    "latitude": "25.040496"
  },
  {
    "category": "心理治療所",
    "name": "伴旅心理治療所",
    "region": "大安區",
    "address": "臺北市大安區忠孝東路三段136號7樓之3",
    "phone": "(02)2731-8180",
    "longitude": "121.537792",
    "latitude": "25.041502"
  },
  {
    "category": "心理治療所",
    "name": "吉兒心理治療所",
    "region": "中正區",
    "address": "臺北市中正區羅斯福路二段70號9樓",
    "phone": "(02)2356-0511",
    "longitude": "121.522045",
    "latitude": "25.027252"
  },
  {
    "category": "心理治療所",
    "name": "辰光心理治療所",
    "region": "北投區",
    "address": "臺北市北投區立農街2段202巷2弄1號1樓、地下1樓",
    "phone": "無",
    "longitude": "121.514043",
    "latitude": "25.118473"
  },
  {
    "category": "心理治療所",
    "name": "拾月拾日心理治療所",
    "region": "文山區",
    "address": "臺北市文山區羅斯福路6段391號2樓",
    "phone": "0919-591-010",
    "longitude": "121.540803",
    "latitude": "24.992274"
  },
  {
    "category": "心理治療所",
    "name": "幼思心理治療所",
    "region": "中山區",
    "address": "臺北市中山區敬業二路69巷55號2樓",
    "phone": "(02)8502-7002",
    "longitude": "121.553201",
    "latitude": "25.082121"
  },
  {
    "category": "心理治療所",
    "name": "轉轉心理治療所",
    "region": "松山區",
    "address": "臺北市松山區南京東路四段50號9樓之6",
    "phone": "(02)2579-6965",
    "longitude": "121.553462",
    "latitude": "25.051447"
  },
  {
    "category": "心理治療所",
    "name": "一二心理諮商所",
    "region": "中山區",
    "address": "臺北市中山區南京東路2段176號11樓",
    "phone": "0932-151-618",
    "longitude": "121.534972",
    "latitude": "25.051829"
  },
  {
    "category": "心理治療所",
    "name": "中崙諮商中心心理諮商所",
    "region": "大安區",
    "address": "臺北市大安區忠孝東路3段54號4樓之1",
    "phone": "(02)2731-9731",
    "longitude": "121.535562",
    "latitude": "25.041727"
  },
  {
    "category": "心理治療所",
    "name": "天力亞太心理諮商所",
    "region": "大安區",
    "address": "臺北市大安區敦化南路2段182號7樓",
    "phone": "(02)2377-0993",
    "longitude": "121.548312",
    "latitude": "25.023561"
  },
  {
    "category": "心理治療所",
    "name": "可言心理諮商所",
    "region": "中正區",
    "address": "臺北市中正區忠孝西路1段50號13樓",
    "phone": "(02)2388-7802",
    "longitude": "121.515823",
    "latitude": "25.046303"
  },
  {
    "category": "心理治療所",
    "name": "拉第石心理諮商所",
    "region": "大安區",
    "address": "臺北市大安區新生南路1段103巷9之1號、9號6樓",
    "phone": "(02)2752-7588",
    "longitude": "121.534074",
    "latitude": "25.040752"
  },
  {
    "category": "心理治療所",
    "name": "格瑞思心理諮商所",
    "region": "大安區",
    "address": "臺北市大安區信義路4段265巷21弄26號",
    "phone": "(02)2325-4648",
    "longitude": "121.555862",
    "latitude": "25.033639"
  },
  {
    "category": "心理治療所",
    "name": "愛的心理諮商所",
    "region": "中山區",
    "address": "臺北市中山區復興北路178號4樓之9",
    "phone": "(02)2545-2253",
    "longitude": "121.543875",
    "latitude": "25.054241"
  },
  {
    "category": "心理治療所",
    "name": "頭陀心理諮商所",
    "region": "松山區",
    "address": "臺北市松山區八德路4段650號13樓之12",
    "phone": "0939-941-695",
    "longitude": "121.575044",
    "latitude": "25.049842"
  },
  {
    "category": "心理治療所",
    "name": "聯合心理諮商所",
    "region": "大安區",
    "address": "臺北市大安區光復南路346巷23號4樓",
    "phone": "0800-00-1385",
    "longitude": "121.55678",
    "latitude": "25.038321"
  },
  {
    "category": "心理治療所",
    "name": "羅吉斯心理諮商所",
    "region": "文山區",
    "address": "臺北市文山區景興路258號9樓",
    "phone": "(02)2935-0804",
    "longitude": "121.542748",
    "latitude": "24.990167"
  },
  {
    "category": "心理治療所",
    "name": "毛蟲藝術心理諮商所",
    "region": "大安區",
    "address": "臺北市大安區信義路3段202號6樓之1",
    "phone": "(02)2755-1338",
    "longitude": "121.543324",
    "latitude": "25.03318"
  },
  {
    "category": "心理治療所",
    "name": "亞和心理諮商所",
    "region": "中山區",
    "address": "臺北市中山區長安東路2段189號7樓之8",
    "phone": "(02)2750-0010",
    "longitude": "121.542773",
    "latitude": "25.04838"
  },
  {
    "category": "心理治療所",
    "name": "啟宗心理諮商所",
    "region": "大安區",
    "address": "臺北市大安區東豐街7號5樓之2",
    "phone": "(02)2325-4066",
    "longitude": "121.544145",
    "latitude": "25.036159"
  },
  {
    "category": "心理治療所",
    "name": "利伯他茲心理諮商所",
    "region": "文山區",
    "address": "臺北市文山區木柵路2段62號2樓",
    "phone": "(02)2936-3201#13",
    "longitude": "121.559248",
    "latitude": "24.988631"
  },
  {
    "category": "心理治療所",
    "name": "蛹之生心理諮商所",
    "region": "大同區",
    "address": "臺北市大同區庫倫街37號2、3樓",
    "phone": "0908-620-620",
    "longitude": "121.518004",
    "latitude": "25.072064"
  },
  {
    "category": "心理治療所",
    "name": "心曦心理諮商所",
    "region": "中正區",
    "address": "臺北市中正區南昌路2段206號7樓",
    "phone": "(02)2367-5018",
    "longitude": "121.52431",
    "latitude": "25.024037"
  },
  {
    "category": "心理治療所",
    "name": "點亮心燈諮商中心心理諮商所",
    "region": "中山區",
    "address": "臺北市中山區松江路289-910號",
    "phone": "0968-138-838",
    "longitude": "121.533383",
    "latitude": "25.060575"
  },
  {
    "category": "心理治療所",
    "name": "璞成心遇空間心理諮商所",
    "region": "大同區",
    "address": "臺北市大同區民權西路108號10樓之1",
    "phone": "(02)2553-3880",
    "longitude": "121.517126",
    "latitude": "25.062729"
  },
  {
    "category": "心理治療所",
    "name": "暖心全人諮商中心心理諮商所",
    "region": "中正區",
    "address": "臺北市中正區羅斯福路2段198號6樓之5",
    "phone": "(02)2366-1099",
    "longitude": "121.52384",
    "latitude": "25.02484"
  },
  {
    "category": "心理治療所",
    "name": "盼心理諮商所",
    "region": "大安區",
    "address": "臺北市大安區四維路198巷38弄11號3樓",
    "phone": "(02)2701-1116",
    "longitude": "121.545689",
    "latitude": "25.026436"
  },
  {
    "category": "心理治療所",
    "name": "初和心理諮商所",
    "region": "大安區",
    "address": "臺北市大安區信義路4段155號8樓",
    "phone": "(02)2701-3392",
    "longitude": "121.550045",
    "latitude": "25.033441"
  },
  {
    "category": "心理治療所",
    "name": "看見心理諮商所",
    "region": "大安區",
    "address": "臺北市大安區忠孝東路3段305號5樓之2",
    "phone": "(02)2775-1051",
    "longitude": "121.543542",
    "latitude": "25.041886"
  },
  {
    "category": "心理治療所",
    "name": "初衷心理諮商所",
    "region": "中正區",
    "address": "臺北市中正區衡陽路85號4樓之5",
    "phone": "(02)2331-2800",
    "longitude": "121.510814",
    "latitude": "25.042324"
  },
  {
    "category": "心理治療所",
    "name": "逸想心理諮商所",
    "region": "松山區",
    "address": "臺北市松山區南京東路4段164號4樓之4",
    "phone": "(02)2578-0751",
    "longitude": "121.556691",
    "latitude": "25.051375"
  },
  {
    "category": "心理治療所",
    "name": "我們心理諮商所",
    "region": "松山區",
    "address": "臺北市松山區南京東路5段154號9樓",
    "phone": "0979-796-896",
    "longitude": "121.562665",
    "latitude": "25.051221"
  },
  {
    "category": "心理治療所",
    "name": "大隱心理諮商所",
    "region": "萬華區",
    "address": "臺北市萬華區成都路139號7樓",
    "phone": "0905-181-152",
    "longitude": "121.503248",
    "latitude": "25.043506"
  },
  {
    "category": "心理治療所",
    "name": "國立臺灣師範大學社區諮商中心心田心理諮商所",
    "region": "大安區",
    "address": "臺北市大安區青田街5巷16號",
    "phone": "(02)7749-5720",
    "longitude": "121.532811",
    "latitude": "25.02853"
  },
  {
    "category": "心理治療所",
    "name": "心晨心理諮商所",
    "region": "中正區",
    "address": "臺北市中正區金門街15號3樓",
    "phone": "(02)2365-0521",
    "longitude": "121.523225",
    "latitude": "25.021536"
  },
  {
    "category": "心理治療所",
    "name": "綻芯心理諮商所",
    "region": "中山區",
    "address": "臺北市中山區復興北路280巷2號3樓",
    "phone": "(02)2501-6199",
    "longitude": "121.543507",
    "latitude": "25.058648"
  },
  {
    "category": "心理治療所",
    "name": "擁抱心理諮商所",
    "region": "內湖區",
    "address": "臺北市內湖區成功路四段32號4樓",
    "phone": "(02)8792-0568",
    "longitude": "121.591668",
    "latitude": "25.081724"
  },
  {
    "category": "心理治療所",
    "name": "以賽亞心理諮商所",
    "region": "中山區",
    "address": "臺北市中山區吉林路231號3樓",
    "phone": "0933-569-611",
    "longitude": "121.530376",
    "latitude": "25.060921"
  },
  {
    "category": "心理治療所",
    "name": "詠安心理諮商所",
    "region": "內湖區",
    "address": "臺北市內湖區港華街57號",
    "phone": "(02)2627-6655",
    "longitude": "121.575282",
    "latitude": "25.083048"
  },
  {
    "category": "心理治療所",
    "name": "愛心理諮商所",
    "region": "大安區",
    "address": "臺北市大安區和平東路二段66號6樓之1",
    "phone": "(02)2922-4977",
    "longitude": "121.538982",
    "latitude": "25.025283"
  },
  {
    "category": "心理治療所",
    "name": "好窩心理諮商所",
    "region": "中正區",
    "address": "臺北市中正區和平西路一段17號3樓",
    "phone": "(02)2356-8846",
    "longitude": "121.521148",
    "latitude": "25.026997"
  },
  {
    "category": "心理治療所",
    "name": "思塾心理諮商所",
    "region": "士林區",
    "address": "臺北市士林區德行西路87號2F",
    "phone": "0958-156-381",
    "longitude": "121.521567",
    "latitude": "25.10452"
  },
  {
    "category": "心理治療所",
    "name": "小隱心理諮商所",
    "region": "中正區",
    "address": "臺北市中正區忠孝西路一段50號18F之14",
    "phone": "0953-162-980",
    "longitude": "121.515823",
    "latitude": "25.046303"
  },
  {
    "category": "心理治療所",
    "name": "璞願心理諮商所",
    "region": "中正區",
    "address": "臺北市中正區忠孝西路一段41號10樓之17",
    "phone": "(02)2389-7535",
    "longitude": "121.518384",
    "latitude": "25.046171"
  },
  {
    "category": "心理治療所",
    "name": "看見心理聯合心理諮商所",
    "region": "大安區",
    "address": "臺北市大安區忠孝東路三段305號5樓之1",
    "phone": "(02)2775-1051",
    "longitude": "121.543542",
    "latitude": "25.041886"
  },
  {
    "category": "心理治療所",
    "name": "蘇予昕心理諮商所",
    "region": "中山區",
    "address": "臺北市中山區敬業一路128巷39號4樓之2",
    "phone": "(02)8502-5021",
    "longitude": "121.553501",
    "latitude": "25.083427"
  },
  {
    "category": "心理治療所",
    "name": "看見心理忠孝心理諮商所",
    "region": "大安區",
    "address": "臺北市大安區忠孝東路三段305號5樓",
    "phone": "(02)2775-1051",
    "longitude": "121.543542",
    "latitude": "25.041886"
  },
  {
    "category": "心理治療所",
    "name": "點晴心理諮商所",
    "region": "中正區",
    "address": "臺北市中正區寧波西街87號7樓之2",
    "phone": "0976-710-756",
    "longitude": "121.515846",
    "latitude": "25.030007"
  },
  {
    "category": "心理治療所",
    "name": "人生設計心理諮商所",
    "region": "大同區",
    "address": "臺北市大同區南京西路41號8樓之2",
    "phone": "0983-580-856",
    "longitude": "121.519765",
    "latitude": "25.052924"
  },
  {
    "category": "心理治療所",
    "name": "國立臺北教育大學心理諮商暨健康促進研究中心芳蘭心理諮商所",
    "region": "大安區",
    "address": "臺北市大安區和平東路2段134之18號",
    "phone": "(02)2732-1104 #86001",
    "longitude": "121.545606",
    "latitude": "25.024514"
  },
  {
    "category": "心理治療所",
    "name": "昕岸心理諮商所",
    "region": "大安區",
    "address": "臺北市大安區信義路2段208號8樓",
    "phone": "0922-620-539",
    "longitude": "121.530722",
    "latitude": "25.033446"
  },
  {
    "category": "心理治療所",
    "name": "微光心理諮商所",
    "region": "大安區",
    "address": "臺北市大安區忠孝東路4段341號10樓之3",
    "phone": "0980-808-064",
    "longitude": "121.557357",
    "latitude": "25.041558"
  },
  {
    "category": "心理治療所",
    "name": "尋境心理諮商所",
    "region": "大安區",
    "address": "臺北市大安區忠孝東路3段248巷11之2號7樓",
    "phone": "0910-189-916",
    "longitude": "121.541419",
    "latitude": "25.040883"
  },
  {
    "category": "心理治療所",
    "name": "沐昂心理諮商所",
    "region": "中正區",
    "address": "臺北市中正區忠孝西路一段50號17樓之13",
    "phone": "(02)2370-8442",
    "longitude": "121.515823",
    "latitude": "25.046303"
  },
  {
    "category": "心理治療所",
    "name": "竹心理諮商所",
    "region": "大安區",
    "address": "臺北市大安區建國南路1段270巷29號1樓",
    "phone": "0937-642-379",
    "longitude": "121.535725",
    "latitude": "25.036549"
  },
  {
    "category": "心理治療所",
    "name": "擁抱心理博愛館心理諮商所",
    "region": "中正區",
    "address": "臺北市中正區博愛路76號10樓之2",
    "phone": "(02)2371-5808",
    "longitude": "121.51136",
    "latitude": "25.044671"
  },
  {
    "category": "心理治療所",
    "name": "向日葵心理諮商所",
    "region": "中山區",
    "address": "臺北市中山區中山北路三段30號3樓之2",
    "phone": "(02)2592-1411",
    "longitude": "121.522035",
    "latitude": "25.065362"
  },
  {
    "category": "心理治療所",
    "name": "芳嚮心理諮商所",
    "region": "大安區",
    "address": "臺北市大安區敦化南路2段5號9樓之2",
    "phone": "0973-859-823",
    "longitude": "121.549153",
    "latitude": "25.032824"
  },
  {
    "category": "心理治療所",
    "name": "舒心心理諮商所",
    "region": "中山區",
    "address": "臺北市中山區民生東路1段42號11樓之2",
    "phone": "(02)2511-3206",
    "longitude": "121.524437",
    "latitude": "25.057929"
  },
  {
    "category": "心理治療所",
    "name": "心不懶心理諮商所",
    "region": "北投區",
    "address": "臺北市北投區西安街1段165巷9弄1號1樓",
    "phone": "0910-028-162",
    "longitude": "121.51799",
    "latitude": "25.109095"
  },
  {
    "category": "心理治療所",
    "name": "心寓心理諮商所",
    "region": "大安區",
    "address": "臺北市大安區羅斯福路3段61號2樓",
    "phone": "0910-080-536",
    "longitude": "121.525816",
    "latitude": "25.023033"
  },
  {
    "category": "心理治療所",
    "name": "潛意心理諮商所",
    "region": "士林區",
    "address": "臺北市士林區中正路213巷44號2樓",
    "phone": "(02)2883-8570",
    "longitude": "121.526754",
    "latitude": "25.093997"
  },
  {
    "category": "心理治療所",
    "name": "格桑美度心理諮商所",
    "region": "大安區",
    "address": "臺北市大安區東豐街7號14樓",
    "phone": "(02)2709-5598",
    "longitude": "121.544145",
    "latitude": "25.036159"
  },
  {
    "category": "心理治療所",
    "name": "依懷心理諮商所",
    "region": "文山區",
    "address": "臺北市文山區羅斯福路6段297號6樓",
    "phone": "0909-416-020",
    "longitude": "121.541372",
    "latitude": "24.994259"
  },
  {
    "category": "心理治療所",
    "name": "島語心理諮商所",
    "region": "文山區",
    "address": "臺北市文山區羅斯福路6段10號4樓之2",
    "phone": "(02)2930-2022",
    "longitude": "121.539438",
    "latitude": "25.000297"
  },
  {
    "category": "心理治療所",
    "name": "沐云心理諮商所",
    "region": "內湖區",
    "address": "臺北市內湖區成功路四段214巷2弄3號2樓",
    "phone": "0910-927-995",
    "longitude": "121.595651",
    "latitude": "25.084768"
  },
  {
    "category": "心理治療所",
    "name": "同伴心理諮商所",
    "region": "大安區",
    "address": "臺北市大安區信義路3段190號10樓",
    "phone": "(02)2755-5429",
    "longitude": "121.54282",
    "latitude": "25.033194"
  },
  {
    "category": "心理治療所",
    "name": "擁抱心藝心理諮商所",
    "region": "內湖區",
    "address": "臺北市內湖區內湖路二段466號2樓",
    "phone": "(02)8791-0019",
    "longitude": "121.592797",
    "latitude": "25.083877"
  },
  {
    "category": "心理治療所",
    "name": "彩虹樹心理諮商所",
    "region": "中正區",
    "address": "臺北市中正區北平東路20號3樓",
    "phone": "(02)2391-0586",
    "longitude": "121.524804",
    "latitude": "25.045999"
  },
  {
    "category": "心理治療所",
    "name": "哈米思心理諮商所",
    "region": "萬華區",
    "address": "臺北市萬華區柳州街6號4樓",
    "phone": "(02)2382-0667",
    "longitude": "121.505394",
    "latitude": "25.039346"
  },
  {
    "category": "心理治療所",
    "name": "2042心理諮商所",
    "region": "中山區",
    "address": "臺北市中山區復興北路204號2樓",
    "phone": "0907-620-489",
    "longitude": "121.543691",
    "latitude": "25.055736"
  },
  {
    "category": "心理治療所",
    "name": "歸心心理諮商所",
    "region": "大安區",
    "address": "臺北市大安區復興南路二段178號3樓",
    "phone": "(02)2703-9156",
    "longitude": "121.543265",
    "latitude": "25.027438"
  },
  {
    "category": "心理治療所",
    "name": "綻芯安和心理諮商所",
    "region": "大安區",
    "address": "臺北市大安區信義路四段187號7樓",
    "phone": "(02)2701-0030",
    "longitude": "121.550951",
    "latitude": "25.033424"
  },
  {
    "category": "心理治療所",
    "name": "如初薩提爾心理諮商所",
    "region": "內湖區",
    "address": "臺北市內湖區內湖路一段607號2樓",
    "phone": "(02)7751-6076",
    "longitude": "121.573716",
    "latitude": "25.080756"
  },
  {
    "category": "心理治療所",
    "name": "暖心泉恩心理諮商所",
    "region": "中正區",
    "address": "臺北市中正區南昌路2段192號8樓之2",
    "phone": "(02)2365-1099",
    "longitude": "121.52384",
    "latitude": "25.024232"
  }
]