[
  {
    "type": "交通",
    "name": "捷運劍潭站(淡水信義線)",
    "address": "臺北市士林區中山北路五段65號",
    "longitude": 121.525078,
    "latitude": 25.084873,
    "admin": "捷運劍潭站(夜)",
    "allSitNumber": 5,
    "premiumSitNumber": 5,
    "goodSitNumber": 0,
    "normalSitNumber": 0,
    "needImproveSitNumber": 0,
    "accessibilitySitNumber": 0,
    "parentChildSitNumber": 1,
    "district": "士林區"
  },
  {
    "type": "交通",
    "name": "捷運士林站(淡水信義線)",
    "address": "臺北市士林區福德路1號",
    "longitude": 121.52623,
    "latitude": 25.093535,
    "admin": "捷運士林站",
    "allSitNumber": 5,
    "premiumSitNumber": 5,
    "goodSitNumber": 0,
    "normalSitNumber": 0,
    "needImproveSitNumber": 0,
    "accessibilitySitNumber": 0,
    "parentChildSitNumber": 1,
    "district": "士林區"
  },
  {
    "type": "交通",
    "name": "捷運芝山站(淡水信義線)",
    "address": "臺北市士林區福國路70號",
    "longitude": 121.522514,
    "latitude": 25.10306,
    "admin": "捷運芝山站",
    "allSitNumber": 5,
    "premiumSitNumber": 5,
    "goodSitNumber": 0,
    "normalSitNumber": 0,
    "needImproveSitNumber": 0,
    "accessibilitySitNumber": 0,
    "parentChildSitNumber": 1,
    "district": "士林區"
  },
  {
    "type": "交通",
    "name": "百齡高中地下停車場",
    "address": "臺北市士林區承德路四段175號地下一、二樓",
    "longitude": 121.523996,
    "latitude": 25.086151,
    "admin": "臺北市停車管理工程處百齡高中地下停車場",
    "allSitNumber": 4,
    "premiumSitNumber": 4,
    "goodSitNumber": 0,
    "normalSitNumber": 0,
    "needImproveSitNumber": 0,
    "accessibilitySitNumber": 0,
    "parentChildSitNumber": 1,
    "district": "士林區"
  },
  {
    "type": "觀光遊憩",
    "name": "國立臺灣科學教育館",
    "address": "臺北市士林區士商路189號",
    "longitude": 121.51601,
    "latitude": 25.095988,
    "admin": "國立臺灣科學教育館",
    "allSitNumber": 51,
    "premiumSitNumber": 51,
    "goodSitNumber": 0,
    "normalSitNumber": 0,
    "needImproveSitNumber": 0,
    "accessibilitySitNumber": 10,
    "parentChildSitNumber": 7,
    "district": "士林區"
  },
  {
    "type": "觀光遊憩",
    "name": "國立故宮博物院",
    "address": "臺北市士林區至善路二段221號",
    "longitude": 121.54936,
    "latitude": 25.099688,
    "admin": "國立故宮博物院",
    "allSitNumber": 13,
    "premiumSitNumber": 13,
    "goodSitNumber": 0,
    "normalSitNumber": 0,
    "needImproveSitNumber": 0,
    "accessibilitySitNumber": 1,
    "parentChildSitNumber": 1,
    "district": "士林區"
  },
  {
    "type": "文化育樂場所",
    "name": "天母運動場",
    "address": "臺北市士林區忠誠路二段77號(天母運動園區服務中心)",
    "longitude": 121.534287,
    "latitude": 25.114385,
    "admin": "臺北市輪椅網球推廣協會",
    "allSitNumber": 6,
    "premiumSitNumber": 0,
    "goodSitNumber": 6,
    "normalSitNumber": 0,
    "needImproveSitNumber": 0,
    "accessibilitySitNumber": 0,
    "parentChildSitNumber": 1,
    "district": "士林區"
  },
  {
    "type": "觀光遊憩",
    "name": "臺北市立兒童新樂園",
    "address": "臺北市士林區承德路五段55號",
    "longitude": 121.516098,
    "latitude": 25.096297,
    "admin": "臺北市立兒童新樂園",
    "allSitNumber": 46,
    "premiumSitNumber": 44,
    "goodSitNumber": 2,
    "normalSitNumber": 0,
    "needImproveSitNumber": 0,
    "accessibilitySitNumber": 22,
    "parentChildSitNumber": 1,
    "district": "士林區"
  },
  {
    "type": "文化育樂場所",
    "name": "士林運動中心",
    "address": "臺北市士林區士商路1號",
    "longitude": 121.52141,
    "latitude": 25.089491,
    "admin": "台北市中華基督教青年會",
    "allSitNumber": 17,
    "premiumSitNumber": 17,
    "goodSitNumber": 0,
    "normalSitNumber": 0,
    "needImproveSitNumber": 0,
    "accessibilitySitNumber": 5,
    "parentChildSitNumber": 5,
    "district": "士林區"
  },
  {
    "type": "公園",
    "name": "天母公園",
    "address": "臺北市士林區中山北路七段219號邊",
    "longitude": 121.530071,
    "latitude": 25.125855,
    "admin": "公園路燈工程管理處陽明公園管理所",
    "allSitNumber": 4,
    "premiumSitNumber": 4,
    "goodSitNumber": 0,
    "normalSitNumber": 0,
    "needImproveSitNumber": 0,
    "accessibilitySitNumber": 1,
    "parentChildSitNumber": 1,
    "district": "士林區"
  },
  {
    "type": "公園",
    "name": "社子公園",
    "address": "臺北市士林區永平街20巷11弄3號對面",
    "longitude": 121.506159,
    "latitude": 25.090457,
    "admin": "公園路燈工程管理處陽明山公園管理所",
    "allSitNumber": 3,
    "premiumSitNumber": 0,
    "goodSitNumber": 3,
    "normalSitNumber": 0,
    "needImproveSitNumber": 0,
    "accessibilitySitNumber": 1,
    "parentChildSitNumber": 1,
    "district": "士林區"
  },
  {
    "type": "公園",
    "name": "芝山公園1號",
    "address": "臺北市士林區至誠路一段182號與雨農路交叉口",
    "longitude": 121.532836,
    "latitude": 25.101148,
    "admin": "公園路燈工程管理處陽明山公園管理所",
    "allSitNumber": 3,
    "premiumSitNumber": 0,
    "goodSitNumber": 3,
    "normalSitNumber": 0,
    "needImproveSitNumber": 0,
    "accessibilitySitNumber": 0,
    "parentChildSitNumber": 1,
    "district": "士林區"
  },
  {
    "type": "公園",
    "name": "忠誠公園",
    "address": "臺北市士林區中山北路六段與忠誠路會口公園水池後方",
    "longitude": 121.525878,
    "latitude": 25.103148,
    "admin": "公園路燈工程管理處陽明山公園管理所",
    "allSitNumber": 3,
    "premiumSitNumber": 0,
    "goodSitNumber": 3,
    "normalSitNumber": 0,
    "needImproveSitNumber": 0,
    "accessibilitySitNumber": 0,
    "parentChildSitNumber": 1,
    "district": "士林區"
  },
  {
    "type": "公園",
    "name": "士林官邸",
    "address": "臺北市士林區福林路60號",
    "longitude": 121.530152,
    "latitude": 25.094898,
    "admin": "公園路燈工程管理處園藝管理所",
    "allSitNumber": 10,
    "premiumSitNumber": 10,
    "goodSitNumber": 0,
    "normalSitNumber": 0,
    "needImproveSitNumber": 0,
    "accessibilitySitNumber": 4,
    "parentChildSitNumber": 2,
    "district": "士林區"
  },
  {
    "type": "公園",
    "name": "美崙公園",
    "address": "臺北市士林區美崙街152巷",
    "longitude": 121.519656,
    "latitude": 25.096979,
    "admin": "公園路燈工程管理處陽明山公園管理所",
    "allSitNumber": 4,
    "premiumSitNumber": 4,
    "goodSitNumber": 0,
    "normalSitNumber": 0,
    "needImproveSitNumber": 0,
    "accessibilitySitNumber": 1,
    "parentChildSitNumber": 1,
    "district": "士林區"
  },
  {
    "type": "公園",
    "name": "花卉試驗中心",
    "address": "臺北市士林區仰德大道四段175巷32號",
    "longitude": 121.544438,
    "latitude": 25.134945,
    "admin": "公園路燈工程管理處花卉試驗中心",
    "allSitNumber": 3,
    "premiumSitNumber": 0,
    "goodSitNumber": 3,
    "normalSitNumber": 0,
    "needImproveSitNumber": 0,
    "accessibilitySitNumber": 1,
    "parentChildSitNumber": 1,
    "district": "士林區"
  },
  {
    "type": "綜合零售賣場",
    "name": "大葉高島屋百貨",
    "address": "臺北市士林區忠誠路二段55號",
    "longitude": 121.531342,
    "latitude": 25.111735,
    "admin": "大葉高島屋百貨股份有限公司",
    "allSitNumber": 23,
    "premiumSitNumber": 23,
    "goodSitNumber": 0,
    "normalSitNumber": 0,
    "needImproveSitNumber": 0,
    "accessibilitySitNumber": 0,
    "parentChildSitNumber": 19,
    "district": "士林區"
  },
  {
    "type": "綜合零售賣場",
    "name": "特力屋士林購物中心",
    "address": "臺北市士林區基河路258號",
    "longitude": 121.520569,
    "latitude": 25.092177,
    "admin": "特力屋股份有限公司",
    "allSitNumber": 5,
    "premiumSitNumber": 2,
    "goodSitNumber": 3,
    "normalSitNumber": 0,
    "needImproveSitNumber": 0,
    "accessibilitySitNumber": 1,
    "parentChildSitNumber": 1,
    "district": "士林區"
  },
  {
    "type": "綜合零售賣場",
    "name": "遠東SOGO 台北天母店",
    "address": "臺北市士林區中山北路六段77號",
    "longitude": 121.524523,
    "latitude": 25.104687,
    "admin": "太平洋崇光百貨股份有限公司遠東SOGO 台北天母店",
    "allSitNumber": 19,
    "premiumSitNumber": 19,
    "goodSitNumber": 0,
    "normalSitNumber": 0,
    "needImproveSitNumber": 0,
    "accessibilitySitNumber": 2,
    "parentChildSitNumber": 1,
    "district": "士林區"
  },
  {
    "type": "綜合零售賣場",
    "name": "新光三越台北天母店",
    "address": "臺北市士林區天母東路68號",
    "longitude": 121.533924,
    "latitude": 25.11795,
    "admin": "新光三越百貨股份有限公司臺北天母店",
    "allSitNumber": 19,
    "premiumSitNumber": 19,
    "goodSitNumber": 0,
    "normalSitNumber": 0,
    "needImproveSitNumber": 0,
    "accessibilitySitNumber": 0,
    "parentChildSitNumber": 2,
    "district": "士林區"
  },
  {
    "type": "綜合零售賣場",
    "name": "特力和樂士林店",
    "address": "臺北市士林區基河路258號地下一樓",
    "longitude": 121.520569,
    "latitude": 25.092177,
    "admin": "特力屋股份有限公司",
    "allSitNumber": 3,
    "premiumSitNumber": 1,
    "goodSitNumber": 2,
    "normalSitNumber": 0,
    "needImproveSitNumber": 0,
    "accessibilitySitNumber": 0,
    "parentChildSitNumber": 2,
    "district": "士林區"
  },
  {
    "type": "機關",
    "name": "士林地政事務所",
    "address": "臺北市士林區中正路439號5樓",
    "longitude": 121.51967,
    "latitude": 25.092808,
    "admin": "臺北市士林地政事務所",
    "allSitNumber": 11,
    "premiumSitNumber": 10,
    "goodSitNumber": 1,
    "normalSitNumber": 0,
    "needImproveSitNumber": 0,
    "accessibilitySitNumber": 2,
    "parentChildSitNumber": 2,
    "district": "士林區"
  },
  {
    "type": "機關",
    "name": "士林區戶政事務所",
    "address": "臺北市士林區中正路439號3樓",
    "longitude": 121.51967,
    "latitude": 25.092808,
    "admin": "臺北市士林區戶政事務所",
    "allSitNumber": 10,
    "premiumSitNumber": 10,
    "goodSitNumber": 0,
    "normalSitNumber": 0,
    "needImproveSitNumber": 0,
    "accessibilitySitNumber": 2,
    "parentChildSitNumber": 1,
    "district": "士林區"
  },
  {
    "type": "機關",
    "name": "士林區公民會館",
    "address": "臺北市士林區士林區大東路75號",
    "longitude": 121.52559,
    "latitude": 25.090846,
    "admin": "臺北市士林區公所士林公民會館",
    "allSitNumber": 5,
    "premiumSitNumber": 0,
    "goodSitNumber": 5,
    "normalSitNumber": 0,
    "needImproveSitNumber": 0,
    "accessibilitySitNumber": 1,
    "parentChildSitNumber": 1,
    "district": "士林區"
  },
  {
    "type": "醫院",
    "name": "新光醫院",
    "address": "臺北市士林區文昌路95號",
    "longitude": 121.520908,
    "latitude": 25.096428,
    "admin": "新光醫療財團法人新光吳火獅紀念醫院",
    "allSitNumber": 37,
    "premiumSitNumber": 37,
    "goodSitNumber": 0,
    "normalSitNumber": 0,
    "needImproveSitNumber": 0,
    "accessibilitySitNumber": 0,
    "parentChildSitNumber": 2,
    "district": "士林區"
  },
  {
    "type": "交通",
    "name": "捷運中山站(淡水信義線)",
    "address": "臺北市大同區南京西路16號",
    "longitude": 121.520518,
    "latitude": 25.052433,
    "admin": "捷運中山站",
    "allSitNumber": 3,
    "premiumSitNumber": 3,
    "goodSitNumber": 0,
    "normalSitNumber": 0,
    "needImproveSitNumber": 0,
    "accessibilitySitNumber": 0,
    "parentChildSitNumber": 1,
    "district": "大同區"
  },
  {
    "type": "交通",
    "name": "捷運雙連站(淡水信義線)",
    "address": "臺北市大同區民生西路47號",
    "longitude": 121.520653,
    "latitude": 25.057686,
    "admin": "捷運雙連站",
    "allSitNumber": 3,
    "premiumSitNumber": 3,
    "goodSitNumber": 0,
    "normalSitNumber": 0,
    "needImproveSitNumber": 0,
    "accessibilitySitNumber": 0,
    "parentChildSitNumber": 1,
    "district": "大同區"
  },
  {
    "type": "交通",
    "name": "捷運民權西路站(淡水信義線)",
    "address": "臺北市大同區民權西路72號",
    "longitude": 121.519531,
    "latitude": 25.062724,
    "admin": "捷運民權西路站",
    "allSitNumber": 3,
    "premiumSitNumber": 3,
    "goodSitNumber": 0,
    "normalSitNumber": 0,
    "needImproveSitNumber": 0,
    "accessibilitySitNumber": 0,
    "parentChildSitNumber": 1,
    "district": "大同區"
  },
  {
    "type": "交通",
    "name": "捷運圓山站(淡水信義線)",
    "address": "臺北市大同區酒泉街9之1號",
    "longitude": 121.520118,
    "latitude": 25.071353,
    "admin": "捷運圓山站",
    "allSitNumber": 3,
    "premiumSitNumber": 3,
    "goodSitNumber": 0,
    "normalSitNumber": 0,
    "needImproveSitNumber": 0,
    "accessibilitySitNumber": 0,
    "parentChildSitNumber": 1,
    "district": "大同區"
  },
  {
    "type": "交通",
    "name": "捷運北門站(松山新店線)",
    "address": "臺北市大同區塔城街10號",
    "longitude": 121.510184,
    "latitude": 25.049554,
    "admin": "捷運北門站(松山新店線)",
    "allSitNumber": 6,
    "premiumSitNumber": 6,
    "goodSitNumber": 0,
    "normalSitNumber": 0,
    "needImproveSitNumber": 0,
    "accessibilitySitNumber": 0,
    "parentChildSitNumber": 2,
    "district": "大同區"
  },
  {
    "type": "交通",
    "name": "捷運中山站(松山新店線)",
    "address": "臺北市大同區南京西路55號",
    "longitude": 121.520364,
    "latitude": 25.052621,
    "admin": "捷運中山站(松山新店線)",
    "allSitNumber": 3,
    "premiumSitNumber": 3,
    "goodSitNumber": 0,
    "normalSitNumber": 0,
    "needImproveSitNumber": 0,
    "accessibilitySitNumber": 0,
    "parentChildSitNumber": 1,
    "district": "大同區"
  },
  {
    "type": "交通",
    "name": "捷運民權西路站(新蘆線)",
    "address": "臺北市大同區民權西路72號1F",
    "longitude": 121.519346,
    "latitude": 25.062879,
    "admin": "臺北大眾捷運股份有限公司捷運民權西路站(新蘆線)",
    "allSitNumber": 5,
    "premiumSitNumber": 5,
    "goodSitNumber": 0,
    "normalSitNumber": 0,
    "needImproveSitNumber": 0,
    "accessibilitySitNumber": 0,
    "parentChildSitNumber": 1,
    "district": "大同區"
  },
  {
    "type": "交通",
    "name": "捷運大橋頭站(新蘆線)",
    "address": "臺北市大同區民權西路223號",
    "longitude": 121.513043,
    "latitude": 25.063171,
    "admin": "臺北大眾捷運股份有限公司捷運大橋頭站(新蘆線)",
    "allSitNumber": 5,
    "premiumSitNumber": 5,
    "goodSitNumber": 0,
    "normalSitNumber": 0,
    "needImproveSitNumber": 0,
    "accessibilitySitNumber": 1,
    "parentChildSitNumber": 1,
    "district": "大同區"
  },
  {
    "type": "文化育樂場所",
    "name": "新芳春茶行",
    "address": "臺北市大同區民生西路309號",
    "longitude": 121.512543,
    "latitude": 25.057079,
    "admin": "財團法人臺灣文創發展基金會",
    "allSitNumber": 5,
    "premiumSitNumber": 5,
    "goodSitNumber": 0,
    "normalSitNumber": 0,
    "needImproveSitNumber": 0,
    "accessibilitySitNumber": 1,
    "parentChildSitNumber": 1,
    "district": "大同區"
  },
  {
    "type": "市場",
    "name": "公有大龍市場(署)",
    "address": "臺北市大同區重慶北路三段347號",
    "longitude": 121.51416,
    "latitude": 25.074936,
    "admin": "臺北市市場處公有大龍市場",
    "allSitNumber": 4,
    "premiumSitNumber": 4,
    "goodSitNumber": 0,
    "normalSitNumber": 0,
    "needImproveSitNumber": 0,
    "accessibilitySitNumber": 1,
    "parentChildSitNumber": 1,
    "district": "大同區"
  },
  {
    "type": "綜合零售賣場",
    "name": "京站時尚廣場",
    "address": "臺北市大同區承德路一段1號",
    "longitude": 121.516825,
    "latitude": 25.049345,
    "admin": "京站時尚廣場",
    "allSitNumber": 20,
    "premiumSitNumber": 20,
    "goodSitNumber": 0,
    "normalSitNumber": 0,
    "needImproveSitNumber": 0,
    "accessibilitySitNumber": 3,
    "parentChildSitNumber": 3,
    "district": "大同區"
  },
  {
    "type": "宗教",
    "name": "孔廟",
    "address": "臺北市大同區大龍街275號",
    "longitude": 121.516179,
    "latitude": 25.072762,
    "admin": "臺北市孔廟管理委員會",
    "allSitNumber": 4,
    "premiumSitNumber": 4,
    "goodSitNumber": 0,
    "normalSitNumber": 0,
    "needImproveSitNumber": 0,
    "accessibilitySitNumber": 1,
    "parentChildSitNumber": 1,
    "district": "大同區"
  },
  {
    "type": "機關",
    "name": "大同區戶政事務所",
    "address": "臺北市大同區昌吉街57號3樓",
    "longitude": 121.515458,
    "latitude": 25.066028,
    "admin": "臺北市大同區戶政事務所",
    "allSitNumber": 3,
    "premiumSitNumber": 3,
    "goodSitNumber": 0,
    "normalSitNumber": 0,
    "needImproveSitNumber": 0,
    "accessibilitySitNumber": 0,
    "parentChildSitNumber": 1,
    "district": "大同區"
  },
  {
    "type": "機關",
    "name": "臺北市立圖書館蘭州民眾閱覽室",
    "address": "臺北市大同區昌吉街57號4樓",
    "longitude": 121.515458,
    "latitude": 25.066028,
    "admin": "臺北市立圖書館蘭州民眾閱覽室",
    "allSitNumber": 4,
    "premiumSitNumber": 4,
    "goodSitNumber": 0,
    "normalSitNumber": 0,
    "needImproveSitNumber": 0,
    "accessibilitySitNumber": 1,
    "parentChildSitNumber": 1,
    "district": "大同區"
  },
  {
    "type": "醫院",
    "name": "聯合醫院中興院區",
    "address": "臺北市大同區鄭州路145號",
    "longitude": 121.50919,
    "latitude": 25.050911,
    "admin": "臺北市立聯合醫院中興院區",
    "allSitNumber": 31,
    "premiumSitNumber": 18,
    "goodSitNumber": 13,
    "normalSitNumber": 0,
    "needImproveSitNumber": 0,
    "accessibilitySitNumber": 5,
    "parentChildSitNumber": 3,
    "district": "大同區"
  },
  {
    "type": "交通",
    "name": "捷運忠孝新生站(板南線)",
    "address": "臺北市大安區新生南路一段67號",
    "longitude": 121.533107,
    "latitude": 25.042023,
    "admin": "捷運忠孝新生站",
    "allSitNumber": 3,
    "premiumSitNumber": 3,
    "goodSitNumber": 0,
    "normalSitNumber": 0,
    "needImproveSitNumber": 0,
    "accessibilitySitNumber": 0,
    "parentChildSitNumber": 1,
    "district": "大安區"
  },
  {
    "type": "交通",
    "name": "捷運忠孝復興站(板南線)",
    "address": "臺北市大安區忠孝東路四段47號",
    "longitude": 121.544841,
    "latitude": 25.041833,
    "admin": "捷運忠孝復興站(板南線)",
    "allSitNumber": 3,
    "premiumSitNumber": 3,
    "goodSitNumber": 0,
    "normalSitNumber": 0,
    "needImproveSitNumber": 0,
    "accessibilitySitNumber": 0,
    "parentChildSitNumber": 1,
    "district": "大安區"
  },
  {
    "type": "交通",
    "name": "金華公園地下停車場",
    "address": "臺北市大安區金華街254巷1號地下",
    "longitude": 121.531765,
    "latitude": 25.029471,
    "admin": "臺北市停車管理工程處金華公園地下停車場",
    "allSitNumber": 3,
    "premiumSitNumber": 3,
    "goodSitNumber": 0,
    "normalSitNumber": 0,
    "needImproveSitNumber": 0,
    "accessibilitySitNumber": 0,
    "parentChildSitNumber": 1,
    "district": "大安區"
  },
  {
    "type": "交通",
    "name": "捷運東門站(淡水信義線)",
    "address": "臺北市大安區信義路二段166號",
    "longitude": 121.5288,
    "latitude": 25.0336,
    "admin": "臺北大眾捷運股份有限公司捷運東門站",
    "allSitNumber": 5,
    "premiumSitNumber": 5,
    "goodSitNumber": 0,
    "normalSitNumber": 0,
    "needImproveSitNumber": 0,
    "accessibilitySitNumber": 0,
    "parentChildSitNumber": 1,
    "district": "大安區"
  },
  {
    "type": "交通",
    "name": "捷運大安森林公園站(淡水信義線)",
    "address": "臺北市大安區信義路三段100號B1",
    "longitude": 121.5337,
    "latitude": 25.033418,
    "admin": "臺北大眾捷運股份有限公司捷運大安森林公園站",
    "allSitNumber": 6,
    "premiumSitNumber": 6,
    "goodSitNumber": 0,
    "normalSitNumber": 0,
    "needImproveSitNumber": 0,
    "accessibilitySitNumber": 0,
    "parentChildSitNumber": 2,
    "district": "大安區"
  },
  {
    "type": "交通",
    "name": "捷運安和站(淡水信義線)",
    "address": "臺北市大安區信義路四段212之1號B1",
    "longitude": 121.551853,
    "latitude": 25.033185,
    "admin": "臺北大眾捷運股份有限公司捷運信義安和站",
    "allSitNumber": 3,
    "premiumSitNumber": 3,
    "goodSitNumber": 0,
    "normalSitNumber": 0,
    "needImproveSitNumber": 0,
    "accessibilitySitNumber": 0,
    "parentChildSitNumber": 1,
    "district": "大安區"
  },
  {
    "type": "公園",
    "name": "大安森林公園(署)",
    "address": "臺北市大安區新生南路二段1號",
    "longitude": 121.535241,
    "latitude": 25.027752,
    "admin": "公園路燈工程管理處青年公園管理所",
    "allSitNumber": 18,
    "premiumSitNumber": 14,
    "goodSitNumber": 4,
    "normalSitNumber": 0,
    "needImproveSitNumber": 0,
    "accessibilitySitNumber": 3,
    "parentChildSitNumber": 9,
    "district": "大安區"
  },
  {
    "type": "大專院校",
    "name": "中國文化大學推廣教育部",
    "address": "臺北市大安區建國南路二段231號",
    "longitude": 121.538013,
    "latitude": 25.025917,
    "admin": "中國文化大學推廣教育部",
    "allSitNumber": 13,
    "premiumSitNumber": 13,
    "goodSitNumber": 0,
    "normalSitNumber": 0,
    "needImproveSitNumber": 0,
    "accessibilitySitNumber": 0,
    "parentChildSitNumber": 1,
    "district": "大安區"
  },
  {
    "type": "綜合零售賣場",
    "name": "太平洋崇光百貨敦化分館",
    "address": "臺北市大安區敦化南路一段246號",
    "longitude": 121.5484,
    "latitude": 25.040184,
    "admin": "太平洋崇光百貨敦化分館工務課",
    "allSitNumber": 18,
    "premiumSitNumber": 18,
    "goodSitNumber": 0,
    "normalSitNumber": 0,
    "needImproveSitNumber": 0,
    "accessibilitySitNumber": 1,
    "parentChildSitNumber": 2,
    "district": "大安區"
  },
  {
    "type": "綜合零售賣場",
    "name": "太平洋崇光百貨(復興店)",
    "address": "臺北市大安區忠孝東路三段300號",
    "longitude": 121.543239,
    "latitude": 25.041476,
    "admin": "太平洋崇光百貨股份有限公司",
    "allSitNumber": 24,
    "premiumSitNumber": 24,
    "goodSitNumber": 0,
    "normalSitNumber": 0,
    "needImproveSitNumber": 0,
    "accessibilitySitNumber": 2,
    "parentChildSitNumber": 1,
    "district": "大安區"
  },
  {
    "type": "綜合零售賣場",
    "name": "東區地下街",
    "address": "臺北市大安區大安路一段77號地下街(位於忠孝復興站至忠孝敦化站之間)",
    "longitude": 121.5462,
    "latitude": 25.0418,
    "admin": "臺北大眾捷運股份有限公司",
    "allSitNumber": 9,
    "premiumSitNumber": 9,
    "goodSitNumber": 0,
    "normalSitNumber": 0,
    "needImproveSitNumber": 0,
    "accessibilitySitNumber": 0,
    "parentChildSitNumber": 3,
    "district": "大安區"
  },
  {
    "type": "機關",
    "name": "大安區戶政事務所",
    "address": "臺北市大安區新生南路二段86號",
    "longitude": 121.534607,
    "latitude": 25.026441,
    "admin": "臺北市大安區戶政事務所",
    "allSitNumber": 6,
    "premiumSitNumber": 6,
    "goodSitNumber": 0,
    "normalSitNumber": 0,
    "needImproveSitNumber": 0,
    "accessibilitySitNumber": 2,
    "parentChildSitNumber": 1,
    "district": "大安區"
  },
  {
    "type": "機關",
    "name": "臺北市立圖書館延吉閱覽室",
    "address": "臺北市大安區延吉街236巷17號3-4樓",
    "longitude": 121.555021,
    "latitude": 25.036117,
    "admin": "臺北市立圖書館延吉民眾閱覽室",
    "allSitNumber": 4,
    "premiumSitNumber": 4,
    "goodSitNumber": 0,
    "normalSitNumber": 0,
    "needImproveSitNumber": 0,
    "accessibilitySitNumber": 0,
    "parentChildSitNumber": 1,
    "district": "大安區"
  },
  {
    "type": "醫院",
    "name": "聯合醫院仁愛院區",
    "address": "臺北市大安區仁愛路四段10號",
    "longitude": 121.545224,
    "latitude": 25.037512,
    "admin": "臺北市立聯合醫院仁愛院區",
    "allSitNumber": 19,
    "premiumSitNumber": 19,
    "goodSitNumber": 0,
    "normalSitNumber": 0,
    "needImproveSitNumber": 0,
    "accessibilitySitNumber": 3,
    "parentChildSitNumber": 1,
    "district": "大安區"
  },
  {
    "type": "交通",
    "name": "捷運中山國中站(文湖線)",
    "address": "臺北市中山區復興北路376號",
    "longitude": 121.544215,
    "latitude": 25.060841,
    "admin": "臺北大眾捷運股份有限公司捷運中山國中站",
    "allSitNumber": 3,
    "premiumSitNumber": 3,
    "goodSitNumber": 0,
    "normalSitNumber": 0,
    "needImproveSitNumber": 0,
    "accessibilitySitNumber": 0,
    "parentChildSitNumber": 1,
    "district": "中山區"
  },
  {
    "type": "交通",
    "name": "市民大道地下停車場林金段",
    "address": "臺北市中山區林森北路-金山北路間地下",
    "longitude": 121.527482,
    "latitude": 25.046906,
    "admin": "臺北市停車管理工程處市民大道地下停車場林金段",
    "allSitNumber": 8,
    "premiumSitNumber": 8,
    "goodSitNumber": 0,
    "normalSitNumber": 0,
    "needImproveSitNumber": 0,
    "accessibilitySitNumber": 0,
    "parentChildSitNumber": 3,
    "district": "中山區"
  },
  {
    "type": "交通",
    "name": "中山計程車服務站",
    "address": "臺北市中山區新生北路三段市立美術館後",
    "longitude": 121.525693,
    "latitude": 25.071735,
    "admin": "中山計程車服務站",
    "allSitNumber": 3,
    "premiumSitNumber": 0,
    "goodSitNumber": 3,
    "normalSitNumber": 0,
    "needImproveSitNumber": 0,
    "accessibilitySitNumber": 1,
    "parentChildSitNumber": 1,
    "district": "中山區"
  },
  {
    "type": "交通",
    "name": "捷運劍南路站(文湖線)",
    "address": "臺北市中山區北安路798號",
    "longitude": 121.555462,
    "latitude": 25.084787,
    "admin": "臺北大眾捷運股份有限公司捷運劍南路站",
    "allSitNumber": 3,
    "premiumSitNumber": 3,
    "goodSitNumber": 0,
    "normalSitNumber": 0,
    "needImproveSitNumber": 0,
    "accessibilitySitNumber": 1,
    "parentChildSitNumber": 1,
    "district": "中山區"
  },
  {
    "type": "交通",
    "name": "捷運大直站(文湖線)",
    "address": "臺北市中山區北安路534之1號",
    "longitude": 121.547078,
    "latitude": 25.079446,
    "admin": "臺北大眾捷運股份有限公司捷運大直站",
    "allSitNumber": 3,
    "premiumSitNumber": 3,
    "goodSitNumber": 0,
    "normalSitNumber": 0,
    "needImproveSitNumber": 0,
    "accessibilitySitNumber": 0,
    "parentChildSitNumber": 1,
    "district": "中山區"
  },
  {
    "type": "交通",
    "name": "捷運松江南京站(新蘆線)",
    "address": "臺北市中山區松江路126號B1",
    "longitude": 121.532951,
    "latitude": 25.052906,
    "admin": "臺北大眾捷運股份有限公司捷運松江南京站",
    "allSitNumber": 5,
    "premiumSitNumber": 5,
    "goodSitNumber": 0,
    "normalSitNumber": 0,
    "needImproveSitNumber": 0,
    "accessibilitySitNumber": 0,
    "parentChildSitNumber": 1,
    "district": "中山區"
  },
  {
    "type": "交通",
    "name": "捷運行天宮站(新蘆線)",
    "address": "臺北市中山區松江路316號B1",
    "longitude": 121.533084,
    "latitude": 25.060552,
    "admin": "臺北大眾捷運股份有限公司捷運行天宮站",
    "allSitNumber": 3,
    "premiumSitNumber": 3,
    "goodSitNumber": 0,
    "normalSitNumber": 0,
    "needImproveSitNumber": 0,
    "accessibilitySitNumber": 3,
    "parentChildSitNumber": 1,
    "district": "中山區"
  },
  {
    "type": "交通",
    "name": "捷運中山國小站(新蘆線)",
    "address": "臺北市中山區民權東路一段71號B1",
    "longitude": 121.527658,
    "latitude": 25.062655,
    "admin": "臺北大眾捷運股份有限公司捷運中山國小站",
    "allSitNumber": 4,
    "premiumSitNumber": 4,
    "goodSitNumber": 0,
    "normalSitNumber": 0,
    "needImproveSitNumber": 0,
    "accessibilitySitNumber": 0,
    "parentChildSitNumber": 1,
    "district": "中山區"
  },
  {
    "type": "文化育樂場所",
    "name": "臺北市立美術館",
    "address": "臺北市中山區中山北路三段181號",
    "longitude": 121.524686,
    "latitude": 25.072631,
    "admin": "臺北市立美術館",
    "allSitNumber": 15,
    "premiumSitNumber": 15,
    "goodSitNumber": 0,
    "normalSitNumber": 0,
    "needImproveSitNumber": 0,
    "accessibilitySitNumber": 2,
    "parentChildSitNumber": 3,
    "district": "中山區"
  },
  {
    "type": "觀光遊憩",
    "name": "林安泰古厝",
    "address": "臺北市中山區濱江街5號林安泰古厝內",
    "longitude": 121.530361,
    "latitude": 25.071746,
    "admin": "林安泰古厝",
    "allSitNumber": 4,
    "premiumSitNumber": 1,
    "goodSitNumber": 3,
    "normalSitNumber": 0,
    "needImproveSitNumber": 0,
    "accessibilitySitNumber": 2,
    "parentChildSitNumber": 1,
    "district": "中山區"
  },
  {
    "type": "公園",
    "name": "榮星公園(署)",
    "address": "臺北市中山區民權東路三段1號",
    "longitude": 121.538864,
    "latitude": 25.063371,
    "admin": "公園路燈工程管理處圓山公園管理所榮星公園",
    "allSitNumber": 9,
    "premiumSitNumber": 9,
    "goodSitNumber": 0,
    "normalSitNumber": 0,
    "needImproveSitNumber": 0,
    "accessibilitySitNumber": 2,
    "parentChildSitNumber": 1,
    "district": "中山區"
  },
  {
    "type": "綜合零售賣場",
    "name": "新光三越台北南京店",
    "address": "臺北市中山區南京西路12號",
    "longitude": 121.521187,
    "latitude": 25.052307,
    "admin": "新光三越百貨股份有限公司台北南西店",
    "allSitNumber": 30,
    "premiumSitNumber": 30,
    "goodSitNumber": 0,
    "normalSitNumber": 0,
    "needImproveSitNumber": 0,
    "accessibilitySitNumber": 6,
    "parentChildSitNumber": 4,
    "district": "中山區"
  },
  {
    "type": "綜合零售賣場",
    "name": "誠品生活南西店",
    "address": "臺北市中山區南京西路14號",
    "longitude": 121.520656,
    "latitude": 25.052219,
    "admin": "誠品生活股份有限公司",
    "allSitNumber": 11,
    "premiumSitNumber": 11,
    "goodSitNumber": 0,
    "normalSitNumber": 0,
    "needImproveSitNumber": 0,
    "accessibilitySitNumber": 0,
    "parentChildSitNumber": 4,
    "district": "中山區"
  },
  {
    "type": "綜合零售賣場",
    "name": "大潤發中崙店",
    "address": "臺北市中山區八德路二段308號B2(CITY LINK大樓)",
    "longitude": 121.542606,
    "latitude": 25.047119,
    "admin": "大潤發流通事業股份有限公司中崙分公司客服部",
    "allSitNumber": 6,
    "premiumSitNumber": 0,
    "goodSitNumber": 6,
    "normalSitNumber": 0,
    "needImproveSitNumber": 0,
    "accessibilitySitNumber": 1,
    "parentChildSitNumber": 1,
    "district": "中山區"
  },
  {
    "type": "綜合零售賣場",
    "name": "美麗華百樂園",
    "address": "臺北市中山區敬業三路20號",
    "longitude": 121.557293,
    "latitude": 25.082837,
    "admin": "美麗華城市發展股份有限公司",
    "allSitNumber": 26,
    "premiumSitNumber": 26,
    "goodSitNumber": 0,
    "normalSitNumber": 0,
    "needImproveSitNumber": 0,
    "accessibilitySitNumber": 4,
    "parentChildSitNumber": 7,
    "district": "中山區"
  },
  {
    "type": "機關",
    "name": "中山區戶政事務所",
    "address": "臺北市中山區松江路367號2樓",
    "longitude": 121.533556,
    "latitude": 25.064455,
    "admin": "臺北市中山區戶政事務所",
    "allSitNumber": 2,
    "premiumSitNumber": 2,
    "goodSitNumber": 0,
    "normalSitNumber": 0,
    "needImproveSitNumber": 0,
    "accessibilitySitNumber": 0,
    "parentChildSitNumber": 2,
    "district": "中山區"
  },
  {
    "type": "機關",
    "name": "第一殯儀館",
    "address": "臺北市中山區民權東路二段145號",
    "longitude": 121.535723,
    "latitude": 25.062648,
    "admin": "臺北市殯葬管理處 第一殯儀館",
    "allSitNumber": 11,
    "premiumSitNumber": 11,
    "goodSitNumber": 0,
    "normalSitNumber": 0,
    "needImproveSitNumber": 0,
    "accessibilitySitNumber": 2,
    "parentChildSitNumber": 1,
    "district": "中山區"
  },
  {
    "type": "機關",
    "name": "中山區公所",
    "address": "臺北市中山區松江路367號",
    "longitude": 121.533556,
    "latitude": 25.064455,
    "admin": "臺北市中山區公所",
    "allSitNumber": 6,
    "premiumSitNumber": 6,
    "goodSitNumber": 0,
    "normalSitNumber": 0,
    "needImproveSitNumber": 0,
    "accessibilitySitNumber": 0,
    "parentChildSitNumber": 4,
    "district": "中山區"
  },
  {
    "type": "機關",
    "name": "國稅局中北稽徵所",
    "address": "臺北市中山區松江路219號",
    "longitude": 121.533394,
    "latitude": 25.05766,
    "admin": "財政部臺北國稅局中北稽徵所",
    "allSitNumber": 8,
    "premiumSitNumber": 8,
    "goodSitNumber": 0,
    "normalSitNumber": 0,
    "needImproveSitNumber": 0,
    "accessibilitySitNumber": 1,
    "parentChildSitNumber": 1,
    "district": "中山區"
  },
  {
    "type": "交通",
    "name": "臺北車站(署)",
    "address": "臺北市中正區北平西路3號",
    "longitude": 121.516989,
    "latitude": 25.047893,
    "admin": "交通部臺灣鐵路管理局臺北運務段臺北車站",
    "allSitNumber": 25,
    "premiumSitNumber": 25,
    "goodSitNumber": 0,
    "normalSitNumber": 0,
    "needImproveSitNumber": 0,
    "accessibilitySitNumber": 5,
    "parentChildSitNumber": 4,
    "district": "中正區"
  },
  {
    "type": "交通",
    "name": "捷運中正紀念堂站(松山新店線)",
    "address": "臺北市中正區羅斯福路一段8之1號",
    "longitude": 121.518363,
    "latitude": 25.032251,
    "admin": "捷運中正紀念堂站",
    "allSitNumber": 5,
    "premiumSitNumber": 5,
    "goodSitNumber": 0,
    "normalSitNumber": 0,
    "needImproveSitNumber": 0,
    "accessibilitySitNumber": 0,
    "parentChildSitNumber": 1,
    "district": "中正區"
  },
  {
    "type": "交通",
    "name": "捷運古亭站(松山新店線)",
    "address": "臺北市中正區羅斯福路二段164之1號",
    "longitude": 121.523279,
    "latitude": 25.025473,
    "admin": "臺北大眾捷運股份有限公司捷運古亭站",
    "allSitNumber": 3,
    "premiumSitNumber": 3,
    "goodSitNumber": 0,
    "normalSitNumber": 0,
    "needImproveSitNumber": 0,
    "accessibilitySitNumber": 0,
    "parentChildSitNumber": 1,
    "district": "中正區"
  },
  {
    "type": "交通",
    "name": "捷運臺北車站(淡水信義線)",
    "address": "臺北市中正區忠孝西路一段49號",
    "longitude": 121.517896,
    "latitude": 25.046374,
    "admin": "臺北大眾捷運股份有限公司捷運臺北車站",
    "allSitNumber": 6,
    "premiumSitNumber": 6,
    "goodSitNumber": 0,
    "normalSitNumber": 0,
    "needImproveSitNumber": 0,
    "accessibilitySitNumber": 0,
    "parentChildSitNumber": 2,
    "district": "中正區"
  },
  {
    "type": "交通",
    "name": "捷運公館站(松山新店線)",
    "address": "臺北市中正區羅斯福路四段64-1號B1F(夜)",
    "longitude": 121.534269,
    "latitude": 25.014786,
    "admin": "捷運公館站",
    "allSitNumber": 3,
    "premiumSitNumber": 3,
    "goodSitNumber": 0,
    "normalSitNumber": 0,
    "needImproveSitNumber": 0,
    "accessibilitySitNumber": 1,
    "parentChildSitNumber": 1,
    "district": "中正區"
  },
  {
    "type": "交通",
    "name": "捷運台電大樓站(松山新店線)",
    "address": "臺北市中正區羅斯福路三段216-5號B1F",
    "longitude": 121.529708,
    "latitude": 25.018927,
    "admin": "捷運台電大樓站",
    "allSitNumber": 3,
    "premiumSitNumber": 3,
    "goodSitNumber": 0,
    "normalSitNumber": 0,
    "needImproveSitNumber": 0,
    "accessibilitySitNumber": 0,
    "parentChildSitNumber": 1,
    "district": "中正區"
  },
  {
    "type": "交通",
    "name": "捷運西門站(板南線)",
    "address": "臺北市中正區寶慶路32-1號B1F",
    "longitude": 121.508652,
    "latitude": 25.041746,
    "admin": "捷運西門站",
    "allSitNumber": 5,
    "premiumSitNumber": 5,
    "goodSitNumber": 0,
    "normalSitNumber": 0,
    "needImproveSitNumber": 0,
    "accessibilitySitNumber": 0,
    "parentChildSitNumber": 1,
    "district": "中正區"
  },
  {
    "type": "交通",
    "name": "捷運善導寺站(板南線)",
    "address": "臺北市中正區忠孝西路一段58號",
    "longitude": 121.523133,
    "latitude": 25.044746,
    "admin": "捷運善導寺站",
    "allSitNumber": 3,
    "premiumSitNumber": 3,
    "goodSitNumber": 0,
    "normalSitNumber": 0,
    "needImproveSitNumber": 0,
    "accessibilitySitNumber": 1,
    "parentChildSitNumber": 1,
    "district": "中正區"
  },
  {
    "type": "交通",
    "name": "桃園國際機場捷運臺北站",
    "address": "臺北市中正區鄭州路8號",
    "longitude": 121.513772,
    "latitude": 25.048737,
    "admin": "桃園國際機場捷運臺北站",
    "allSitNumber": 10,
    "premiumSitNumber": 10,
    "goodSitNumber": 0,
    "normalSitNumber": 0,
    "needImproveSitNumber": 0,
    "accessibilitySitNumber": 1,
    "parentChildSitNumber": 3,
    "district": "中正區"
  },
  {
    "type": "交通",
    "name": "捷運臺北車站(板南線)",
    "address": "臺北市中正區忠孝西路一段49號",
    "longitude": 121.517896,
    "latitude": 25.046374,
    "admin": "捷運臺北車站(板南線)",
    "allSitNumber": 3,
    "premiumSitNumber": 3,
    "goodSitNumber": 0,
    "normalSitNumber": 0,
    "needImproveSitNumber": 0,
    "accessibilitySitNumber": 0,
    "parentChildSitNumber": 1,
    "district": "中正區"
  },
  {
    "type": "交通",
    "name": "捷運小南門站(松山新店線)",
    "address": "臺北市中正區愛國西路22號-1樓",
    "longitude": 121.511274,
    "latitude": 25.035203,
    "admin": "捷運小南門站(松山新店線)",
    "allSitNumber": 3,
    "premiumSitNumber": 3,
    "goodSitNumber": 0,
    "normalSitNumber": 0,
    "needImproveSitNumber": 0,
    "accessibilitySitNumber": 0,
    "parentChildSitNumber": 1,
    "district": "中正區"
  },
  {
    "type": "文化育樂場所",
    "name": "臺北市青少年發展處",
    "address": "臺北市中正區仁愛路一段17號",
    "longitude": 121.522275,
    "latitude": 25.038971,
    "admin": "臺北市青少年發展處",
    "allSitNumber": 31,
    "premiumSitNumber": 31,
    "goodSitNumber": 0,
    "normalSitNumber": 0,
    "needImproveSitNumber": 0,
    "accessibilitySitNumber": 9,
    "parentChildSitNumber": 2,
    "district": "中正區"
  },
  {
    "type": "文化育樂場所",
    "name": "二二八國家紀念館",
    "address": "臺北市中正區南海路54號",
    "longitude": 121.51379,
    "latitude": 25.031614,
    "admin": "財團法人二二八事件紀念基金會",
    "allSitNumber": 3,
    "premiumSitNumber": 3,
    "goodSitNumber": 0,
    "normalSitNumber": 0,
    "needImproveSitNumber": 0,
    "accessibilitySitNumber": 0,
    "parentChildSitNumber": 1,
    "district": "中正區"
  },
  {
    "type": "觀光遊憩",
    "name": "寶藏巖國際藝術村",
    "address": "臺北市中正區汀州路三段230巷37弄4-8號",
    "longitude": 121.5325,
    "latitude": 25.0109,
    "admin": "財團法人台北市文化基金會藝術村營運部",
    "allSitNumber": 8,
    "premiumSitNumber": 0,
    "goodSitNumber": 8,
    "normalSitNumber": 0,
    "needImproveSitNumber": 0,
    "accessibilitySitNumber": 0,
    "parentChildSitNumber": 1,
    "district": "中正區"
  },
  {
    "type": "觀光遊憩",
    "name": "臺北市客家文化主題公園(署)",
    "address": "臺北市中正區汀州路三段2號",
    "longitude": 121.5253,
    "latitude": 25.0203,
    "admin": "臺北市客家事務委員會",
    "allSitNumber": 24,
    "premiumSitNumber": 24,
    "goodSitNumber": 0,
    "normalSitNumber": 0,
    "needImproveSitNumber": 0,
    "accessibilitySitNumber": 7,
    "parentChildSitNumber": 1,
    "district": "中正區"
  },
  {
    "type": "公園",
    "name": "逸仙公園",
    "address": "臺北市中正區中山北路、北平西路交叉口國父史蹟紀念館內",
    "longitude": 121.520269,
    "latitude": 25.047554,
    "admin": "公園路燈工程管理處青年公園管理所",
    "allSitNumber": 3,
    "premiumSitNumber": 0,
    "goodSitNumber": 3,
    "normalSitNumber": 0,
    "needImproveSitNumber": 0,
    "accessibilitySitNumber": 1,
    "parentChildSitNumber": 1,
    "district": "中正區"
  },
  {
    "type": "公園",
    "name": "中央藝文1號公園",
    "address": "臺北市中正區北平東路30號對面",
    "longitude": 121.525912,
    "latitude": 25.046065,
    "admin": "公園路燈工程管理處青年公園管理所",
    "allSitNumber": 3,
    "premiumSitNumber": 0,
    "goodSitNumber": 3,
    "normalSitNumber": 0,
    "needImproveSitNumber": 0,
    "accessibilitySitNumber": 0,
    "parentChildSitNumber": 1,
    "district": "中正區"
  },
  {
    "type": "市場",
    "name": "公有南門市場(署)",
    "address": "臺北市中正區羅斯福路一段8號",
    "longitude": 121.522284,
    "latitude": 25.030271,
    "admin": "臺北市市場處公有南門市場",
    "allSitNumber": 13,
    "premiumSitNumber": 13,
    "goodSitNumber": 0,
    "normalSitNumber": 0,
    "needImproveSitNumber": 0,
    "accessibilitySitNumber": 3,
    "parentChildSitNumber": 1,
    "district": "中正區"
  },
  {
    "type": "綜合零售賣場",
    "name": "新光三越台北站前店",
    "address": "臺北市中正區忠孝西路一段66號",
    "longitude": 121.515241,
    "latitude": 25.046139,
    "admin": "新光三越百貨股份有限公司台北站前店",
    "allSitNumber": 34,
    "premiumSitNumber": 34,
    "goodSitNumber": 0,
    "normalSitNumber": 0,
    "needImproveSitNumber": 0,
    "accessibilitySitNumber": 8,
    "parentChildSitNumber": 1,
    "district": "中正區"
  },
  {
    "type": "綜合零售賣場",
    "name": "三創生活園區",
    "address": "臺北市中正區市民大道三段2號",
    "longitude": 121.531431,
    "latitude": 25.045728,
    "admin": "三創生活園區",
    "allSitNumber": 20,
    "premiumSitNumber": 20,
    "goodSitNumber": 0,
    "normalSitNumber": 0,
    "needImproveSitNumber": 0,
    "accessibilitySitNumber": 3,
    "parentChildSitNumber": 3,
    "district": "中正區"
  },
  {
    "type": "綜合零售賣場",
    "name": "東森地下街K區",
    "address": "臺北市中正區忠孝西路一段47號B1",
    "longitude": 121.517177,
    "latitude": 25.046753,
    "admin": "東森得易購股份有限公司 K區東森廣場營業所",
    "allSitNumber": 7,
    "premiumSitNumber": 0,
    "goodSitNumber": 7,
    "normalSitNumber": 0,
    "needImproveSitNumber": 0,
    "accessibilitySitNumber": 0,
    "parentChildSitNumber": 1,
    "district": "中正區"
  },
  {
    "type": "綜合零售賣場",
    "name": "微風臺北車站(署)",
    "address": "臺北市中正區北平西路3號2F",
    "longitude": 121.517823,
    "latitude": 25.047989,
    "admin": "微風場站開發股份有限公司微風場站營五部",
    "allSitNumber": 12,
    "premiumSitNumber": 12,
    "goodSitNumber": 0,
    "normalSitNumber": 0,
    "needImproveSitNumber": 0,
    "accessibilitySitNumber": 2,
    "parentChildSitNumber": 1,
    "district": "中正區"
  },
  {
    "type": "機關",
    "name": "行政院",
    "address": "臺北市中正區忠孝東路一段1號",
    "longitude": 121.527929,
    "latitude": 25.055201,
    "admin": "行政院",
    "allSitNumber": 11,
    "premiumSitNumber": 11,
    "goodSitNumber": 0,
    "normalSitNumber": 0,
    "needImproveSitNumber": 0,
    "accessibilitySitNumber": 2,
    "parentChildSitNumber": 1,
    "district": "中正區"
  },
  {
    "type": "機關",
    "name": "臺北市立圖書館城中分館",
    "address": "臺北市中正區濟南路二段46號3樓",
    "longitude": 121.530902,
    "latitude": 25.040316,
    "admin": "臺北市立圖書館城中分館",
    "allSitNumber": 3,
    "premiumSitNumber": 2,
    "goodSitNumber": 1,
    "normalSitNumber": 0,
    "needImproveSitNumber": 0,
    "accessibilitySitNumber": 1,
    "parentChildSitNumber": 1,
    "district": "中正區"
  },
  {
    "type": "機關",
    "name": "臺北市稅捐稽徵總處",
    "address": "臺北市中正區北平東路7之2號",
    "longitude": 121.523342,
    "latitude": 25.046631,
    "admin": "臺北市稅捐稽徵處總處",
    "allSitNumber": 12,
    "premiumSitNumber": 12,
    "goodSitNumber": 0,
    "normalSitNumber": 0,
    "needImproveSitNumber": 0,
    "accessibilitySitNumber": 0,
    "parentChildSitNumber": 1,
    "district": "中正區"
  },
  {
    "type": "機關",
    "name": "中山堂",
    "address": "臺北市中正區延平南路98號",
    "longitude": 121.510036,
    "latitude": 25.043204,
    "admin": "臺北市中山堂管理所",
    "allSitNumber": 9,
    "premiumSitNumber": 9,
    "goodSitNumber": 0,
    "normalSitNumber": 0,
    "needImproveSitNumber": 0,
    "accessibilitySitNumber": 1,
    "parentChildSitNumber": 1,
    "district": "中正區"
  },
  {
    "type": "醫院",
    "name": "臺大醫院",
    "address": "臺北市中正區常德街1號",
    "longitude": 121.517181,
    "latitude": 25.041417,
    "admin": "國立臺灣大學醫學院附設醫院",
    "allSitNumber": 100,
    "premiumSitNumber": 100,
    "goodSitNumber": 0,
    "normalSitNumber": 0,
    "needImproveSitNumber": 0,
    "accessibilitySitNumber": 20,
    "parentChildSitNumber": 15,
    "district": "中正區"
  },
  {
    "type": "醫院",
    "name": "三軍總醫院汀州院區",
    "address": "臺北市中正區汀州路三段40號",
    "longitude": 121.529829,
    "latitude": 25.016476,
    "admin": "三軍總醫院汀州院區",
    "allSitNumber": 25,
    "premiumSitNumber": 25,
    "goodSitNumber": 0,
    "normalSitNumber": 0,
    "needImproveSitNumber": 0,
    "accessibilitySitNumber": 6,
    "parentChildSitNumber": 1,
    "district": "中正區"
  },
  {
    "type": "醫院",
    "name": "聯合醫院和平婦幼院區(和平)",
    "address": "臺北市中正區廣州街14號",
    "longitude": 121.506879,
    "latitude": 25.035528,
    "admin": "臺北市立聯合醫院和平婦幼院區(和平)",
    "allSitNumber": 18,
    "premiumSitNumber": 4,
    "goodSitNumber": 14,
    "normalSitNumber": 0,
    "needImproveSitNumber": 0,
    "accessibilitySitNumber": 2,
    "parentChildSitNumber": 5,
    "district": "中正區"
  },
  {
    "type": "醫院",
    "name": "聯合醫院和平婦幼院區(婦幼)",
    "address": "臺北市中正區福州街12號",
    "longitude": 121.519277,
    "latitude": 25.029086,
    "admin": "臺北市立聯合醫院和平婦幼院區(婦幼)",
    "allSitNumber": 10,
    "premiumSitNumber": 10,
    "goodSitNumber": 0,
    "normalSitNumber": 0,
    "needImproveSitNumber": 0,
    "accessibilitySitNumber": 1,
    "parentChildSitNumber": 2,
    "district": "中正區"
  },
  {
    "type": "交通",
    "name": "港富立體停車場",
    "address": "臺北市內湖區內湖路737巷50弄32號",
    "longitude": 121.577899,
    "latitude": 25.080532,
    "admin": "臺北市停車管理工程處港富立體停車場",
    "allSitNumber": 3,
    "premiumSitNumber": 0,
    "goodSitNumber": 3,
    "normalSitNumber": 0,
    "needImproveSitNumber": 0,
    "accessibilitySitNumber": 1,
    "parentChildSitNumber": 1,
    "district": "內湖區"
  },
  {
    "type": "交通",
    "name": "捷運東湖站(文湖線)",
    "address": "臺北市內湖區康寧路三段235號",
    "longitude": 121.611718,
    "latitude": 25.067126,
    "admin": "臺北大眾捷運股份有限公司東湖站",
    "allSitNumber": 3,
    "premiumSitNumber": 3,
    "goodSitNumber": 0,
    "normalSitNumber": 0,
    "needImproveSitNumber": 0,
    "accessibilitySitNumber": 0,
    "parentChildSitNumber": 1,
    "district": "內湖區"
  },
  {
    "type": "交通",
    "name": "捷運葫洲站(文湖線)",
    "address": "臺北市內湖區康寧路三段16號",
    "longitude": 121.607389,
    "latitude": 25.072483,
    "admin": "臺北大眾捷運股份有限公司葫洲站",
    "allSitNumber": 5,
    "premiumSitNumber": 5,
    "goodSitNumber": 0,
    "normalSitNumber": 0,
    "needImproveSitNumber": 0,
    "accessibilitySitNumber": 0,
    "parentChildSitNumber": 1,
    "district": "內湖區"
  },
  {
    "type": "交通",
    "name": "捷運大湖公園站(文湖線)",
    "address": "臺北市內湖區成功路五段11號",
    "longitude": 121.602658,
    "latitude": 25.083351,
    "admin": "臺北大眾捷運股份有限公司大湖公園站",
    "allSitNumber": 3,
    "premiumSitNumber": 3,
    "goodSitNumber": 0,
    "normalSitNumber": 0,
    "needImproveSitNumber": 0,
    "accessibilitySitNumber": 0,
    "parentChildSitNumber": 1,
    "district": "內湖區"
  },
  {
    "type": "交通",
    "name": "捷運內湖站(文湖線)",
    "address": "臺北市內湖區成功路四段186號",
    "longitude": 121.594258,
    "latitude": 25.0839,
    "admin": "臺北大眾捷運股份有限公司內湖站",
    "allSitNumber": 3,
    "premiumSitNumber": 3,
    "goodSitNumber": 0,
    "normalSitNumber": 0,
    "needImproveSitNumber": 0,
    "accessibilitySitNumber": 0,
    "parentChildSitNumber": 1,
    "district": "內湖區"
  },
  {
    "type": "交通",
    "name": "捷運文德站(文湖線)",
    "address": "臺北市內湖區文德路214號",
    "longitude": 121.585527,
    "latitude": 25.078436,
    "admin": "臺北大眾捷運股份有限公司文德站",
    "allSitNumber": 3,
    "premiumSitNumber": 3,
    "goodSitNumber": 0,
    "normalSitNumber": 0,
    "needImproveSitNumber": 0,
    "accessibilitySitNumber": 0,
    "parentChildSitNumber": 1,
    "district": "內湖區"
  },
  {
    "type": "交通",
    "name": "捷運港墘站(文湖線)",
    "address": "臺北市內湖區內湖路一段663號",
    "longitude": 121.575481,
    "latitude": 25.080073,
    "admin": "臺北大眾捷運股份有限公司港墘站",
    "allSitNumber": 3,
    "premiumSitNumber": 3,
    "goodSitNumber": 0,
    "normalSitNumber": 0,
    "needImproveSitNumber": 0,
    "accessibilitySitNumber": 0,
    "parentChildSitNumber": 1,
    "district": "內湖區"
  },
  {
    "type": "交通",
    "name": "捷運西湖站(文湖線)",
    "address": "臺北市內湖區內湖路一段256號",
    "longitude": 121.567597,
    "latitude": 25.081906,
    "admin": "臺北大眾捷運股份有限公司西湖站",
    "allSitNumber": 3,
    "premiumSitNumber": 3,
    "goodSitNumber": 0,
    "normalSitNumber": 0,
    "needImproveSitNumber": 0,
    "accessibilitySitNumber": 0,
    "parentChildSitNumber": 1,
    "district": "內湖區"
  },
  {
    "type": "交通",
    "name": "康樂立體停車場",
    "address": "臺北市內湖區康樂街138號",
    "longitude": 121.619142,
    "latitude": 25.072277,
    "admin": "臺北市停車管理工程處康樂立體停車場",
    "allSitNumber": 3,
    "premiumSitNumber": 0,
    "goodSitNumber": 3,
    "normalSitNumber": 0,
    "needImproveSitNumber": 0,
    "accessibilitySitNumber": 1,
    "parentChildSitNumber": 1,
    "district": "內湖區"
  },
  {
    "type": "公園",
    "name": "大湖公園",
    "address": "臺北市內湖區成功路五段31號",
    "longitude": 121.603208,
    "latitude": 25.080578,
    "admin": "公園路燈工程管理處圓山公園管理所",
    "allSitNumber": 3,
    "premiumSitNumber": 3,
    "goodSitNumber": 0,
    "normalSitNumber": 0,
    "needImproveSitNumber": 0,
    "accessibilitySitNumber": 1,
    "parentChildSitNumber": 1,
    "district": "內湖區"
  },
  {
    "type": "綜合零售賣場",
    "name": "好市多購物中心(內湖店)",
    "address": "臺北市內湖區舊宗路一段268號",
    "longitude": 121.575994,
    "latitude": 25.064152,
    "admin": "好市多購物中心內湖店",
    "allSitNumber": 10,
    "premiumSitNumber": 10,
    "goodSitNumber": 0,
    "normalSitNumber": 0,
    "needImproveSitNumber": 0,
    "accessibilitySitNumber": 1,
    "parentChildSitNumber": 1,
    "district": "內湖區"
  },
  {
    "type": "綜合零售賣場",
    "name": "大潤發購物中心二館",
    "address": "臺北市內湖區舊宗路一段188號",
    "longitude": 121.575245,
    "latitude": 25.062596,
    "admin": "大潤發流通事業股份有限公司內湖分公司客服部",
    "allSitNumber": 19,
    "premiumSitNumber": 0,
    "goodSitNumber": 19,
    "normalSitNumber": 0,
    "needImproveSitNumber": 0,
    "accessibilitySitNumber": 5,
    "parentChildSitNumber": 2,
    "district": "內湖區"
  },
  {
    "type": "綜合零售賣場",
    "name": "悅家居百貨",
    "address": "臺北市內湖區舊宗路一段150巷25號",
    "longitude": 121.576436,
    "latitude": 25.062212,
    "admin": "悅家居百貨",
    "allSitNumber": 5,
    "premiumSitNumber": 0,
    "goodSitNumber": 5,
    "normalSitNumber": 0,
    "needImproveSitNumber": 0,
    "accessibilitySitNumber": 0,
    "parentChildSitNumber": 1,
    "district": "內湖區"
  },
  {
    "type": "綜合零售賣場",
    "name": "家樂福內湖店",
    "address": "臺北市內湖區民善街88號",
    "longitude": 121.575214,
    "latitude": 25.06043,
    "admin": "家福股份有限公司台北內湖分公司",
    "allSitNumber": 19,
    "premiumSitNumber": 2,
    "goodSitNumber": 17,
    "normalSitNumber": 0,
    "needImproveSitNumber": 0,
    "accessibilitySitNumber": 3,
    "parentChildSitNumber": 2,
    "district": "內湖區"
  },
  {
    "type": "機關",
    "name": "臺北市立圖書館東湖分館",
    "address": "臺北市內湖區五分街6號",
    "longitude": 121.61261,
    "latitude": 25.067415,
    "admin": "臺北市立圖書館東湖分館",
    "allSitNumber": 11,
    "premiumSitNumber": 11,
    "goodSitNumber": 0,
    "normalSitNumber": 0,
    "needImproveSitNumber": 0,
    "accessibilitySitNumber": 4,
    "parentChildSitNumber": 1,
    "district": "內湖區"
  },
  {
    "type": "機關",
    "name": "文德派出所",
    "address": "臺北市內湖區民權東路六段26號",
    "longitude": 121.579109,
    "latitude": 25.066663,
    "admin": "臺北市政府警察局文德派出所",
    "allSitNumber": 1,
    "premiumSitNumber": 0,
    "goodSitNumber": 1,
    "normalSitNumber": 0,
    "needImproveSitNumber": 0,
    "accessibilitySitNumber": 0,
    "parentChildSitNumber": 1,
    "district": "內湖區"
  },
  {
    "type": "機關",
    "name": "內湖公園1號",
    "address": "臺北市內湖區成功路五段大湖公園康寧托兒所旁",
    "longitude": 121.606483,
    "latitude": 25.078151,
    "admin": "臺北市政府環境保護局",
    "allSitNumber": 1,
    "premiumSitNumber": 0,
    "goodSitNumber": 1,
    "normalSitNumber": 0,
    "needImproveSitNumber": 0,
    "accessibilitySitNumber": 0,
    "parentChildSitNumber": 1,
    "district": "內湖區"
  },
  {
    "type": "醫院",
    "name": "中國醫藥大學附設醫院臺北分院",
    "address": "臺北市內湖區內湖路二段360號",
    "longitude": 121.590642,
    "latitude": 25.082157,
    "admin": "中國醫藥大學附設醫院臺北分院",
    "allSitNumber": 16,
    "premiumSitNumber": 0,
    "goodSitNumber": 16,
    "normalSitNumber": 0,
    "needImproveSitNumber": 0,
    "accessibilitySitNumber": 2,
    "parentChildSitNumber": 1,
    "district": "內湖區"
  },
  {
    "type": "醫院",
    "name": "三軍總醫院內湖院區",
    "address": "臺北市內湖區成功路二段325號",
    "longitude": 121.592407,
    "latitude": 25.071435,
    "admin": "三軍總醫院內湖院區",
    "allSitNumber": 66,
    "premiumSitNumber": 66,
    "goodSitNumber": 0,
    "normalSitNumber": 0,
    "needImproveSitNumber": 0,
    "accessibilitySitNumber": 12,
    "parentChildSitNumber": 2,
    "district": "內湖區"
  },
  {
    "type": "交通",
    "name": "捷運萬芳醫院站(文湖線)",
    "address": "臺北市文山區興隆路三段113號",
    "longitude": 121.558095,
    "latitude": 24.999335,
    "admin": "捷運萬芳醫院站",
    "allSitNumber": 3,
    "premiumSitNumber": 3,
    "goodSitNumber": 0,
    "normalSitNumber": 0,
    "needImproveSitNumber": 0,
    "accessibilitySitNumber": 1,
    "parentChildSitNumber": 1,
    "district": "文山區"
  },
  {
    "type": "交通",
    "name": "捷運景美站(松山新店線)",
    "address": "臺北市文山區羅斯福路六段216號",
    "longitude": 121.540571,
    "latitude": 24.993206,
    "admin": "捷運景美站(夜)",
    "allSitNumber": 3,
    "premiumSitNumber": 3,
    "goodSitNumber": 0,
    "normalSitNumber": 0,
    "needImproveSitNumber": 0,
    "accessibilitySitNumber": 0,
    "parentChildSitNumber": 1,
    "district": "文山區"
  },
  {
    "type": "交通",
    "name": "捷運萬隆站(松山新店線)",
    "address": "臺北市文山區羅斯福路五段214號",
    "longitude": 121.538552,
    "latitude": 25.002544,
    "admin": "捷運萬隆站",
    "allSitNumber": 3,
    "premiumSitNumber": 3,
    "goodSitNumber": 0,
    "normalSitNumber": 0,
    "needImproveSitNumber": 0,
    "accessibilitySitNumber": 0,
    "parentChildSitNumber": 1,
    "district": "文山區"
  },
  {
    "type": "交通",
    "name": "北二高木柵休息站",
    "address": "木柵休息站",
    "longitude": 121.570283,
    "latitude": 24.975939,
    "admin": "交通部台灣區國道高速公路局北區工程處木柵工務段",
    "allSitNumber": 4,
    "premiumSitNumber": 4,
    "goodSitNumber": 0,
    "normalSitNumber": 0,
    "needImproveSitNumber": 0,
    "accessibilitySitNumber": 1,
    "parentChildSitNumber": 1,
    "district": "文山區"
  },
  {
    "type": "觀光遊憩",
    "name": "臺北市立動物園",
    "address": "臺北市文山區新光路二段30號",
    "longitude": 121.581069,
    "latitude": 24.998855,
    "admin": "臺北市立動物園",
    "allSitNumber": 75,
    "premiumSitNumber": 75,
    "goodSitNumber": 0,
    "normalSitNumber": 0,
    "needImproveSitNumber": 0,
    "accessibilitySitNumber": 20,
    "parentChildSitNumber": 5,
    "district": "文山區"
  },
  {
    "type": "觀光遊憩",
    "name": "博嘉運動公園(署)",
    "address": "臺北市文山區木柵路四段159巷16號",
    "longitude": 121.575427,
    "latitude": 25.000884,
    "admin": "博嘉運動公園",
    "allSitNumber": 10,
    "premiumSitNumber": 10,
    "goodSitNumber": 0,
    "normalSitNumber": 0,
    "needImproveSitNumber": 0,
    "accessibilitySitNumber": 1,
    "parentChildSitNumber": 1,
    "district": "文山區"
  },
  {
    "type": "公園",
    "name": "萬芳公園",
    "address": "臺北市文山區萬和街2號旁",
    "longitude": 121.568252,
    "latitude": 25.001252,
    "admin": "公園路燈工程管理處南港公園管理所",
    "allSitNumber": 4,
    "premiumSitNumber": 4,
    "goodSitNumber": 0,
    "normalSitNumber": 0,
    "needImproveSitNumber": 0,
    "accessibilitySitNumber": 1,
    "parentChildSitNumber": 1,
    "district": "文山區"
  },
  {
    "type": "公園",
    "name": "木柵公園(署)",
    "address": "臺北市文山區下崙路9之3號對面",
    "longitude": 121.560505,
    "latitude": 24.986902,
    "admin": "公園路燈工程管理處南港公園管理所",
    "allSitNumber": 3,
    "premiumSitNumber": 0,
    "goodSitNumber": 3,
    "normalSitNumber": 0,
    "needImproveSitNumber": 0,
    "accessibilitySitNumber": 0,
    "parentChildSitNumber": 1,
    "district": "文山區"
  },
  {
    "type": "公園",
    "name": "景美運動公園(署)",
    "address": "臺北市文山區景豐街底",
    "longitude": 121.545128,
    "latitude": 25.001276,
    "admin": "公園路燈工程管理處南港公園管理所",
    "allSitNumber": 3,
    "premiumSitNumber": 3,
    "goodSitNumber": 0,
    "normalSitNumber": 0,
    "needImproveSitNumber": 0,
    "accessibilitySitNumber": 0,
    "parentChildSitNumber": 1,
    "district": "文山區"
  },
  {
    "type": "機關",
    "name": "古亭地政事務所",
    "address": "臺北市文山區萬隆街47之12號2樓至4樓",
    "longitude": 121.533232,
    "latitude": 24.960972,
    "admin": "臺北市古亭地政事務所",
    "allSitNumber": 2,
    "premiumSitNumber": 0,
    "goodSitNumber": 2,
    "normalSitNumber": 0,
    "needImproveSitNumber": 0,
    "accessibilitySitNumber": 1,
    "parentChildSitNumber": 1,
    "district": "文山區"
  },
  {
    "type": "機關",
    "name": "臺北市立圖書館文山分館",
    "address": "臺北市文山區興隆路二段160號7樓",
    "longitude": 121.551672,
    "latitude": 25.001719,
    "admin": "臺北市立圖書館文山分館",
    "allSitNumber": 10,
    "premiumSitNumber": 0,
    "goodSitNumber": 10,
    "normalSitNumber": 0,
    "needImproveSitNumber": 0,
    "accessibilitySitNumber": 1,
    "parentChildSitNumber": 1,
    "district": "文山區"
  },
  {
    "type": "機關",
    "name": "文山區戶政事務所(所本部)",
    "address": "臺北市文山區木柵路三段220號2樓",
    "longitude": 121.569962,
    "latitude": 24.989558,
    "admin": "臺北市文山區戶政事務所所本部",
    "allSitNumber": 5,
    "premiumSitNumber": 5,
    "goodSitNumber": 0,
    "normalSitNumber": 0,
    "needImproveSitNumber": 0,
    "accessibilitySitNumber": 0,
    "parentChildSitNumber": 1,
    "district": "文山區"
  },
  {
    "type": "機關",
    "name": "臺北市立圖書館景新分館",
    "address": "臺北市文山區景後街151號7樓",
    "longitude": 121.542032,
    "latitude": 24.990152,
    "admin": "臺北市立圖書館景新分館",
    "allSitNumber": 13,
    "premiumSitNumber": 0,
    "goodSitNumber": 13,
    "normalSitNumber": 0,
    "needImproveSitNumber": 0,
    "accessibilitySitNumber": 3,
    "parentChildSitNumber": 1,
    "district": "文山區"
  },
  {
    "type": "醫院",
    "name": "臺北市立萬芳醫院",
    "address": "臺北市文山區興隆路三段111號",
    "longitude": 121.558387,
    "latitude": 24.999963,
    "admin": "臺北市立萬芳醫院",
    "allSitNumber": 25,
    "premiumSitNumber": 0,
    "goodSitNumber": 25,
    "normalSitNumber": 0,
    "needImproveSitNumber": 0,
    "accessibilitySitNumber": 5,
    "parentChildSitNumber": 1,
    "district": "文山區"
  },
  {
    "type": "交通",
    "name": "捷運明德站(淡水信義線)",
    "address": "臺北市北投區明德路95號",
    "longitude": 121.518848,
    "latitude": 25.109721,
    "admin": "捷運明德站",
    "allSitNumber": 3,
    "premiumSitNumber": 3,
    "goodSitNumber": 0,
    "normalSitNumber": 0,
    "needImproveSitNumber": 0,
    "accessibilitySitNumber": 0,
    "parentChildSitNumber": 1,
    "district": "北投區"
  },
  {
    "type": "交通",
    "name": "捷運石牌站(淡水信義線)",
    "address": "臺北市北投區石牌路一段200號",
    "longitude": 121.515136,
    "latitude": 25.115078,
    "admin": "捷運石牌站",
    "allSitNumber": 5,
    "premiumSitNumber": 5,
    "goodSitNumber": 0,
    "normalSitNumber": 0,
    "needImproveSitNumber": 0,
    "accessibilitySitNumber": 0,
    "parentChildSitNumber": 1,
    "district": "北投區"
  },
  {
    "type": "交通",
    "name": "捷運唭哩岸站(淡水信義線)",
    "address": "臺北市北投區東華街二段301號",
    "longitude": 121.506252,
    "latitude": 25.120872,
    "admin": "捷運唭哩岸站",
    "allSitNumber": 3,
    "premiumSitNumber": 3,
    "goodSitNumber": 0,
    "normalSitNumber": 0,
    "needImproveSitNumber": 0,
    "accessibilitySitNumber": 0,
    "parentChildSitNumber": 1,
    "district": "北投區"
  },
  {
    "type": "交通",
    "name": "捷運奇岩站(淡水信義線)",
    "address": "臺北市北投區三合街二段487號",
    "longitude": 121.501132,
    "latitude": 25.125491,
    "admin": "捷運奇岩站",
    "allSitNumber": 3,
    "premiumSitNumber": 3,
    "goodSitNumber": 0,
    "normalSitNumber": 0,
    "needImproveSitNumber": 0,
    "accessibilitySitNumber": 0,
    "parentChildSitNumber": 1,
    "district": "北投區"
  },
  {
    "type": "交通",
    "name": "捷運北投站(淡水信義線)",
    "address": "臺北市北投區光明路1號",
    "longitude": 121.498695,
    "latitude": 25.131977,
    "admin": "捷運北投站",
    "allSitNumber": 6,
    "premiumSitNumber": 6,
    "goodSitNumber": 0,
    "normalSitNumber": 0,
    "needImproveSitNumber": 0,
    "accessibilitySitNumber": 0,
    "parentChildSitNumber": 2,
    "district": "北投區"
  },
  {
    "type": "交通",
    "name": "捷運新北投站(淡水信義線)",
    "address": "臺北市北投區大業路700號",
    "longitude": 121.502534,
    "latitude": 25.136947,
    "admin": "捷運新北投站",
    "allSitNumber": 3,
    "premiumSitNumber": 3,
    "goodSitNumber": 0,
    "normalSitNumber": 0,
    "needImproveSitNumber": 0,
    "accessibilitySitNumber": 0,
    "parentChildSitNumber": 1,
    "district": "北投區"
  },
  {
    "type": "交通",
    "name": "捷運復興崗站(淡水信義線)",
    "address": "臺北市北投區中央北路三段53巷10號",
    "longitude": 121.485424,
    "latitude": 25.137532,
    "admin": "捷運復興崗站",
    "allSitNumber": 3,
    "premiumSitNumber": 3,
    "goodSitNumber": 0,
    "normalSitNumber": 0,
    "needImproveSitNumber": 0,
    "accessibilitySitNumber": 0,
    "parentChildSitNumber": 1,
    "district": "北投區"
  },
  {
    "type": "交通",
    "name": "捷運忠義站(淡水信義線)",
    "address": "臺北市北投區中央北路四段301號",
    "longitude": 121.473226,
    "latitude": 25.131058,
    "admin": "捷運忠義站",
    "allSitNumber": 3,
    "premiumSitNumber": 3,
    "goodSitNumber": 0,
    "normalSitNumber": 0,
    "needImproveSitNumber": 0,
    "accessibilitySitNumber": 0,
    "parentChildSitNumber": 1,
    "district": "北投區"
  },
  {
    "type": "交通",
    "name": "七星公園地下停車場",
    "address": "臺北市北投區光明路225號",
    "longitude": 121.504128,
    "latitude": 25.136564,
    "admin": "臺北市停車管理工程處七星公園地下停車場",
    "allSitNumber": 4,
    "premiumSitNumber": 4,
    "goodSitNumber": 0,
    "normalSitNumber": 0,
    "needImproveSitNumber": 0,
    "accessibilitySitNumber": 1,
    "parentChildSitNumber": 1,
    "district": "北投區"
  },
  {
    "type": "觀光遊憩",
    "name": "陽明山國家公園(署)",
    "address": "臺北市北投區小油坑地質景觀區遊客服務中心",
    "longitude": 121.546587,
    "latitude": 25.155082,
    "admin": "營建署陽明山國家公園管理處",
    "allSitNumber": 22,
    "premiumSitNumber": 22,
    "goodSitNumber": 0,
    "normalSitNumber": 0,
    "needImproveSitNumber": 0,
    "accessibilitySitNumber": 7,
    "parentChildSitNumber": 3,
    "district": "北投區"
  },
  {
    "type": "觀光遊憩",
    "name": "陽明山中山樓(署)",
    "address": "臺北市北投區陽明路二段15號",
    "longitude": 121.552778,
    "latitude": 25.155614,
    "admin": "國立台灣圖書館陽明山中山樓管理所",
    "allSitNumber": 6,
    "premiumSitNumber": 6,
    "goodSitNumber": 0,
    "normalSitNumber": 0,
    "needImproveSitNumber": 0,
    "accessibilitySitNumber": 0,
    "parentChildSitNumber": 1,
    "district": "北投區"
  },
  {
    "type": "加油站",
    "name": "中油北投中央北路加油站",
    "address": "臺北市北投區中央北路四段584號",
    "longitude": 121.4663,
    "latitude": 25.127079,
    "admin": "臺灣中油股份有限公司北投中央北路站",
    "allSitNumber": 1,
    "premiumSitNumber": 0,
    "goodSitNumber": 1,
    "normalSitNumber": 0,
    "needImproveSitNumber": 0,
    "accessibilitySitNumber": 1,
    "parentChildSitNumber": 1,
    "district": "北投區"
  },
  {
    "type": "公園",
    "name": "陽明山公園(署)",
    "address": "臺北市北投區陽明山",
    "longitude": 121.540139,
    "latitude": 25.156931,
    "admin": "公園路燈工程管理處陽明公園管理所",
    "allSitNumber": 25,
    "premiumSitNumber": 25,
    "goodSitNumber": 0,
    "normalSitNumber": 0,
    "needImproveSitNumber": 0,
    "accessibilitySitNumber": 12,
    "parentChildSitNumber": 2,
    "district": "北投區"
  },
  {
    "type": "公園",
    "name": "北投福星公園",
    "address": "臺北市北投區文林北路225號",
    "longitude": 121.512297,
    "latitude": 25.109071,
    "admin": "工務局公園路燈工程管理處",
    "allSitNumber": 3,
    "premiumSitNumber": 0,
    "goodSitNumber": 3,
    "normalSitNumber": 0,
    "needImproveSitNumber": 0,
    "accessibilitySitNumber": 0,
    "parentChildSitNumber": 1,
    "district": "北投區"
  },
  {
    "type": "公園",
    "name": "洲美公園",
    "address": "臺北市北投區福美路199號",
    "longitude": 121.505584,
    "latitude": 25.10028,
    "admin": "臺北市公園路燈管理處陽明山管理所",
    "allSitNumber": 4,
    "premiumSitNumber": 4,
    "goodSitNumber": 0,
    "normalSitNumber": 0,
    "needImproveSitNumber": 0,
    "accessibilitySitNumber": 1,
    "parentChildSitNumber": 1,
    "district": "北投區"
  },
  {
    "type": "機關",
    "name": "臺北市立圖書館稻香分館",
    "address": "臺北市北投區稻香路81號樓",
    "longitude": 121.489538,
    "latitude": 25.140952,
    "admin": "臺北市立圖書館稻香分館",
    "allSitNumber": 9,
    "premiumSitNumber": 9,
    "goodSitNumber": 0,
    "normalSitNumber": 0,
    "needImproveSitNumber": 0,
    "accessibilitySitNumber": 3,
    "parentChildSitNumber": 1,
    "district": "北投區"
  },
  {
    "type": "醫院",
    "name": "臺北榮民總醫院",
    "address": "臺北市北投區石牌路二段201號",
    "longitude": 121.520082,
    "latitude": 25.119349,
    "admin": "臺北榮民總醫院",
    "allSitNumber": 117,
    "premiumSitNumber": 96,
    "goodSitNumber": 21,
    "normalSitNumber": 0,
    "needImproveSitNumber": 0,
    "accessibilitySitNumber": 16,
    "parentChildSitNumber": 22,
    "district": "北投區"
  },
  {
    "type": "交通",
    "name": "松山機場",
    "address": "臺北市松山區敦化北路340-9號",
    "longitude": 121.551513,
    "latitude": 25.063666,
    "admin": "交通部民航局臺北國際航空站",
    "allSitNumber": 22,
    "premiumSitNumber": 22,
    "goodSitNumber": 0,
    "normalSitNumber": 0,
    "needImproveSitNumber": 0,
    "accessibilitySitNumber": 5,
    "parentChildSitNumber": 15,
    "district": "松山區"
  },
  {
    "type": "交通",
    "name": "八德立體停車場",
    "address": "臺北市松山區八德路四段568號",
    "longitude": 121.572071,
    "latitude": 25.049758,
    "admin": "八德立體停車場(夜)",
    "allSitNumber": 9,
    "premiumSitNumber": 9,
    "goodSitNumber": 0,
    "normalSitNumber": 0,
    "needImproveSitNumber": 0,
    "accessibilitySitNumber": 1,
    "parentChildSitNumber": 4,
    "district": "松山區"
  },
  {
    "type": "交通",
    "name": "捷運南京復興站(松山新店線)",
    "address": "臺北市松山區南京東路三段253號",
    "longitude": 121.544045,
    "latitude": 25.052285,
    "admin": "捷運南京復興站(松山新店線)",
    "allSitNumber": 8,
    "premiumSitNumber": 8,
    "goodSitNumber": 0,
    "normalSitNumber": 0,
    "needImproveSitNumber": 0,
    "accessibilitySitNumber": 0,
    "parentChildSitNumber": 2,
    "district": "松山區"
  },
  {
    "type": "交通",
    "name": "捷運台北小巨蛋站(松山新店線)",
    "address": "臺北市松山區南京東路四段10-1號",
    "longitude": 121.552549,
    "latitude": 25.051292,
    "admin": "捷運台北小巨蛋站(松山新店線)",
    "allSitNumber": 6,
    "premiumSitNumber": 6,
    "goodSitNumber": 0,
    "normalSitNumber": 0,
    "needImproveSitNumber": 0,
    "accessibilitySitNumber": 0,
    "parentChildSitNumber": 2,
    "district": "松山區"
  },
  {
    "type": "交通",
    "name": "捷運南京三民站(松山新店線)",
    "address": "臺北市松山區南京東路五段237號",
    "longitude": 121.564708,
    "latitude": 25.051652,
    "admin": "捷運南京三民站(松山新店線)",
    "allSitNumber": 5,
    "premiumSitNumber": 5,
    "goodSitNumber": 0,
    "normalSitNumber": 0,
    "needImproveSitNumber": 0,
    "accessibilitySitNumber": 0,
    "parentChildSitNumber": 1,
    "district": "松山區"
  },
  {
    "type": "交通",
    "name": "捷運松山站(松山新店線)",
    "address": "臺北市松山區八德路四段742號",
    "longitude": 121.577706,
    "latitude": 25.050118,
    "admin": "捷運松山站(松山新店線)(夜)",
    "allSitNumber": 6,
    "premiumSitNumber": 6,
    "goodSitNumber": 0,
    "normalSitNumber": 0,
    "needImproveSitNumber": 0,
    "accessibilitySitNumber": 0,
    "parentChildSitNumber": 2,
    "district": "松山區"
  },
  {
    "type": "交通",
    "name": "捷運南京復興站(文湖線)",
    "address": "臺北市松山區南京東路三段253號",
    "longitude": 121.544517,
    "latitude": 25.052057,
    "admin": "臺北大眾捷運股份有限公司捷運文湖線南京復興站",
    "allSitNumber": 3,
    "premiumSitNumber": 3,
    "goodSitNumber": 0,
    "normalSitNumber": 0,
    "needImproveSitNumber": 0,
    "accessibilitySitNumber": 0,
    "parentChildSitNumber": 1,
    "district": "松山區"
  },
  {
    "type": "交通",
    "name": "捷運松山機場站(文湖線)",
    "address": "臺北市松山區敦化北路338號",
    "longitude": 121.551547,
    "latitude": 25.063114,
    "admin": "臺北大眾捷運股份有限公司捷運松山機場站",
    "allSitNumber": 6,
    "premiumSitNumber": 6,
    "goodSitNumber": 0,
    "normalSitNumber": 0,
    "needImproveSitNumber": 0,
    "accessibilitySitNumber": 2,
    "parentChildSitNumber": 2,
    "district": "松山區"
  },
  {
    "type": "文化育樂場所",
    "name": "臺北田徑場",
    "address": "臺北市松山區敦化北路3號",
    "longitude": 121.551403,
    "latitude": 25.051253,
    "admin": "臺北田徑場",
    "allSitNumber": 42,
    "premiumSitNumber": 0,
    "goodSitNumber": 42,
    "normalSitNumber": 0,
    "needImproveSitNumber": 0,
    "accessibilitySitNumber": 10,
    "parentChildSitNumber": 8,
    "district": "松山區"
  },
  {
    "type": "觀光遊憩",
    "name": "臺北小巨蛋",
    "address": "臺北市松山區南京東路四段2號(南京東路四段與敦化北路交叉口)",
    "longitude": 121.549934,
    "latitude": 25.05145,
    "admin": "臺北大眾捷運股份有限公司",
    "allSitNumber": 30,
    "premiumSitNumber": 30,
    "goodSitNumber": 0,
    "normalSitNumber": 0,
    "needImproveSitNumber": 0,
    "accessibilitySitNumber": 1,
    "parentChildSitNumber": 3,
    "district": "松山區"
  },
  {
    "type": "綜合零售賣場",
    "name": "微風廣場",
    "address": "臺北市松山區復興南路一段39號",
    "longitude": 121.544177,
    "latitude": 25.04614,
    "admin": "微風廣場",
    "allSitNumber": 40,
    "premiumSitNumber": 40,
    "goodSitNumber": 0,
    "normalSitNumber": 0,
    "needImproveSitNumber": 0,
    "accessibilitySitNumber": 2,
    "parentChildSitNumber": 4,
    "district": "松山區"
  },
  {
    "type": "機關",
    "name": "松山區戶政事務所",
    "address": "臺北市松山區八德路四段692號4樓",
    "longitude": 121.577229,
    "latitude": 25.049822,
    "admin": "臺北市松山區戶政事務所",
    "allSitNumber": 3,
    "premiumSitNumber": 3,
    "goodSitNumber": 0,
    "normalSitNumber": 0,
    "needImproveSitNumber": 0,
    "accessibilitySitNumber": 0,
    "parentChildSitNumber": 1,
    "district": "松山區"
  },
  {
    "type": "機關",
    "name": "松山區健康服務中心",
    "address": "臺北市松山區八德路四段692號2樓",
    "longitude": 121.577229,
    "latitude": 25.049822,
    "admin": "臺北市松山區健康服務中心",
    "allSitNumber": 3,
    "premiumSitNumber": 3,
    "goodSitNumber": 0,
    "normalSitNumber": 0,
    "needImproveSitNumber": 0,
    "accessibilitySitNumber": 0,
    "parentChildSitNumber": 1,
    "district": "松山區"
  },
  {
    "type": "機關",
    "name": "臺北市立圖書館民生分館",
    "address": "臺北市松山區敦化北路199巷5號4樓",
    "longitude": 121.55113,
    "latitude": 25.057122,
    "admin": "臺北市立圖書館民生分館",
    "allSitNumber": 5,
    "premiumSitNumber": 0,
    "goodSitNumber": 5,
    "normalSitNumber": 0,
    "needImproveSitNumber": 0,
    "accessibilitySitNumber": 0,
    "parentChildSitNumber": 1,
    "district": "松山區"
  },
  {
    "type": "機關",
    "name": "臺北市立圖書館松山分館",
    "address": "臺北市松山區八德路四段668號5-8樓",
    "longitude": 121.576809,
    "latitude": 25.049848,
    "admin": "臺北市立圖書館松山分館",
    "allSitNumber": 10,
    "premiumSitNumber": 2,
    "goodSitNumber": 8,
    "normalSitNumber": 0,
    "needImproveSitNumber": 0,
    "accessibilitySitNumber": 2,
    "parentChildSitNumber": 1,
    "district": "松山區"
  },
  {
    "type": "機關",
    "name": "民生社區中心",
    "address": "臺北市松山區民生東路五段163之1號",
    "longitude": 121.562981,
    "latitude": 25.058996,
    "admin": "民生社區中心",
    "allSitNumber": 16,
    "premiumSitNumber": 16,
    "goodSitNumber": 0,
    "normalSitNumber": 0,
    "needImproveSitNumber": 0,
    "accessibilitySitNumber": 4,
    "parentChildSitNumber": 3,
    "district": "松山區"
  },
  {
    "type": "機關",
    "name": "松山1號",
    "address": "臺北市松山區八德路3段99巷12-11號對面",
    "longitude": 121.553986,
    "latitude": 25.049222,
    "admin": "臺北市政府環境保護局",
    "allSitNumber": 1,
    "premiumSitNumber": 0,
    "goodSitNumber": 1,
    "normalSitNumber": 0,
    "needImproveSitNumber": 0,
    "accessibilitySitNumber": 0,
    "parentChildSitNumber": 1,
    "district": "松山區"
  },
  {
    "type": "醫院",
    "name": "臺安醫院",
    "address": "臺北市松山區八德路二段424號",
    "longitude": 121.547413,
    "latitude": 25.048094,
    "admin": "財團法人基督復臨安息日會臺安醫院",
    "allSitNumber": 26,
    "premiumSitNumber": 26,
    "goodSitNumber": 0,
    "normalSitNumber": 0,
    "needImproveSitNumber": 0,
    "accessibilitySitNumber": 3,
    "parentChildSitNumber": 2,
    "district": "松山區"
  },
  {
    "type": "醫院",
    "name": "三軍總醫院松山分院",
    "address": "臺北市松山區健康路131號",
    "longitude": 121.557672,
    "latitude": 25.054373,
    "admin": "三軍總醫院松山分院",
    "allSitNumber": 20,
    "premiumSitNumber": 0,
    "goodSitNumber": 20,
    "normalSitNumber": 0,
    "needImproveSitNumber": 0,
    "accessibilitySitNumber": 1,
    "parentChildSitNumber": 1,
    "district": "松山區"
  },
  {
    "type": "醫院",
    "name": "長庚紀念醫院",
    "address": "臺北市松山區敦化北路199號",
    "longitude": 121.549524,
    "latitude": 25.055639,
    "admin": "財團法人長庚紀念醫院",
    "allSitNumber": 40,
    "premiumSitNumber": 23,
    "goodSitNumber": 17,
    "normalSitNumber": 0,
    "needImproveSitNumber": 0,
    "accessibilitySitNumber": 8,
    "parentChildSitNumber": 2,
    "district": "松山區"
  },
  {
    "type": "交通",
    "name": "松山車站(署)",
    "address": "臺北市信義區松山路11號",
    "longitude": 121.577914,
    "latitude": 25.049437,
    "admin": "交通部臺灣鐵路管理局臺北運務段松山車站",
    "allSitNumber": 10,
    "premiumSitNumber": 10,
    "goodSitNumber": 0,
    "normalSitNumber": 0,
    "needImproveSitNumber": 0,
    "accessibilitySitNumber": 1,
    "parentChildSitNumber": 3,
    "district": "信義區"
  },
  {
    "type": "交通",
    "name": "捷運國父紀念館站(板南線)",
    "address": "臺北市信義區忠孝東路四段400號",
    "longitude": 121.558011,
    "latitude": 25.041048,
    "admin": "捷運國父紀念館站",
    "allSitNumber": 3,
    "premiumSitNumber": 3,
    "goodSitNumber": 0,
    "normalSitNumber": 0,
    "needImproveSitNumber": 0,
    "accessibilitySitNumber": 0,
    "parentChildSitNumber": 1,
    "district": "信義區"
  },
  {
    "type": "交通",
    "name": "捷運市政府站(板南線)",
    "address": "臺北市信義區忠孝東路五段2號",
    "longitude": 121.565328,
    "latitude": 25.04092,
    "admin": "捷運市政府站(板南線)",
    "allSitNumber": 3,
    "premiumSitNumber": 3,
    "goodSitNumber": 0,
    "normalSitNumber": 0,
    "needImproveSitNumber": 0,
    "accessibilitySitNumber": 0,
    "parentChildSitNumber": 1,
    "district": "信義區"
  },
  {
    "type": "交通",
    "name": "春光公園地下停車場",
    "address": "臺北市信義區忠孝東路五段666號",
    "longitude": 121.580698,
    "latitude": 25.042242,
    "admin": "臺北市停車管理工程處春光公園地下停車場",
    "allSitNumber": 4,
    "premiumSitNumber": 4,
    "goodSitNumber": 0,
    "normalSitNumber": 0,
    "needImproveSitNumber": 0,
    "accessibilitySitNumber": 1,
    "parentChildSitNumber": 1,
    "district": "信義區"
  },
  {
    "type": "交通",
    "name": "捷運象山站(淡水信義線)",
    "address": "臺北市信義區信義路五段152號B1",
    "longitude": 121.567279,
    "latitude": 25.032903,
    "admin": "臺北大眾捷運股份有限公司捷運象山站",
    "allSitNumber": 3,
    "premiumSitNumber": 3,
    "goodSitNumber": 0,
    "normalSitNumber": 0,
    "needImproveSitNumber": 0,
    "accessibilitySitNumber": 0,
    "parentChildSitNumber": 1,
    "district": "信義區"
  },
  {
    "type": "觀光遊憩",
    "name": "國立國父紀念館",
    "address": "臺北市信義區仁愛路四段505號",
    "longitude": 121.560224,
    "latitude": 25.039724,
    "admin": "國立國父紀念館",
    "allSitNumber": 27,
    "premiumSitNumber": 27,
    "goodSitNumber": 0,
    "normalSitNumber": 0,
    "needImproveSitNumber": 0,
    "accessibilitySitNumber": 5,
    "parentChildSitNumber": 2,
    "district": "信義區"
  },
  {
    "type": "公園",
    "name": "永春坡濕地公園",
    "address": "臺北市信義區松山路657號",
    "longitude": 121.580579,
    "latitude": 25.033356,
    "admin": "工務局公園路燈工程管理處",
    "allSitNumber": 6,
    "premiumSitNumber": 6,
    "goodSitNumber": 0,
    "normalSitNumber": 0,
    "needImproveSitNumber": 0,
    "accessibilitySitNumber": 0,
    "parentChildSitNumber": 2,
    "district": "信義區"
  },
  {
    "type": "綜合零售賣場",
    "name": "新光三越台北信義新天地A11館",
    "address": "臺北市信義區松壽路11號",
    "longitude": 121.567208,
    "latitude": 25.036004,
    "admin": "新光三越百貨股份有限公司台北信義新天地A11館",
    "allSitNumber": 24,
    "premiumSitNumber": 24,
    "goodSitNumber": 0,
    "normalSitNumber": 0,
    "needImproveSitNumber": 0,
    "accessibilitySitNumber": 4,
    "parentChildSitNumber": 9,
    "district": "信義區"
  },
  {
    "type": "綜合零售賣場",
    "name": "ATT 4 FUN",
    "address": "臺北市信義區松壽路12號",
    "longitude": 121.5661,
    "latitude": 25.0356,
    "admin": "ATT 4 FUN",
    "allSitNumber": 13,
    "premiumSitNumber": 13,
    "goodSitNumber": 0,
    "normalSitNumber": 0,
    "needImproveSitNumber": 0,
    "accessibilitySitNumber": 1,
    "parentChildSitNumber": 1,
    "district": "信義區"
  },
  {
    "type": "綜合零售賣場",
    "name": "新光三越台北信義新天地A8館",
    "address": "臺北市信義區松高路12號",
    "longitude": 121.566663,
    "latitude": 25.038882,
    "admin": "新光三越百貨股份有限公司台北信義新天地A8館",
    "allSitNumber": 39,
    "premiumSitNumber": 39,
    "goodSitNumber": 0,
    "normalSitNumber": 0,
    "needImproveSitNumber": 0,
    "accessibilitySitNumber": 0,
    "parentChildSitNumber": 8,
    "district": "信義區"
  },
  {
    "type": "綜合零售賣場",
    "name": "新光三越台北信義新天地A9館",
    "address": "臺北市信義區松壽路9號",
    "longitude": 121.566575,
    "latitude": 25.036018,
    "admin": "新光三越百貨股份有限公司台北信義新天地A9館",
    "allSitNumber": 48,
    "premiumSitNumber": 48,
    "goodSitNumber": 0,
    "normalSitNumber": 0,
    "needImproveSitNumber": 0,
    "accessibilitySitNumber": 1,
    "parentChildSitNumber": 4,
    "district": "信義區"
  },
  {
    "type": "綜合零售賣場",
    "name": "台北101購物中心",
    "address": "臺北市信義區市府路45號",
    "longitude": 121.564101,
    "latitude": 25.033493,
    "admin": "台北101購物中心",
    "allSitNumber": 18,
    "premiumSitNumber": 18,
    "goodSitNumber": 0,
    "normalSitNumber": 0,
    "needImproveSitNumber": 0,
    "accessibilitySitNumber": 2,
    "parentChildSitNumber": 1,
    "district": "信義區"
  },
  {
    "type": "綜合零售賣場",
    "name": "微風信義",
    "address": "臺北市信義區忠孝東路五段68號",
    "longitude": 121.567052,
    "latitude": 25.040782,
    "admin": "微風信義",
    "allSitNumber": 16,
    "premiumSitNumber": 16,
    "goodSitNumber": 0,
    "normalSitNumber": 0,
    "needImproveSitNumber": 0,
    "accessibilitySitNumber": 2,
    "parentChildSitNumber": 2,
    "district": "信義區"
  },
  {
    "type": "綜合零售賣場",
    "name": "遠百信義A13",
    "address": "臺北市信義區松仁路58號",
    "longitude": 121.567968,
    "latitude": 25.036732,
    "admin": "遠東百貨股份有限公司",
    "allSitNumber": 39,
    "premiumSitNumber": 39,
    "goodSitNumber": 0,
    "normalSitNumber": 0,
    "needImproveSitNumber": 0,
    "accessibilitySitNumber": 8,
    "parentChildSitNumber": 4,
    "district": "信義區"
  },
  {
    "type": "綜合零售賣場",
    "name": "誠品信義旗艦店",
    "address": "臺北市信義區松高路11號",
    "longitude": 121.565856,
    "latitude": 25.039357,
    "admin": "誠品生活股份有限公司信義第一分公司",
    "allSitNumber": 24,
    "premiumSitNumber": 24,
    "goodSitNumber": 0,
    "normalSitNumber": 0,
    "needImproveSitNumber": 0,
    "accessibilitySitNumber": 0,
    "parentChildSitNumber": 5,
    "district": "信義區"
  },
  {
    "type": "綜合零售賣場",
    "name": "新光三越台北信義新天地A4館",
    "address": "臺北市信義區松高路19號",
    "longitude": 121.567026,
    "latitude": 25.039329,
    "admin": "新光三越百貨股份有限公司台北信義新天地A4館",
    "allSitNumber": 22,
    "premiumSitNumber": 22,
    "goodSitNumber": 0,
    "normalSitNumber": 0,
    "needImproveSitNumber": 0,
    "accessibilitySitNumber": 4,
    "parentChildSitNumber": 2,
    "district": "信義區"
  },
  {
    "type": "綜合零售賣場",
    "name": "微風南山百貨",
    "address": "臺北市信義區松智路17號",
    "longitude": 121.566049,
    "latitude": 25.034173,
    "admin": "微風置地股份有限公司南山分公司",
    "allSitNumber": 38,
    "premiumSitNumber": 38,
    "goodSitNumber": 0,
    "normalSitNumber": 0,
    "needImproveSitNumber": 0,
    "accessibilitySitNumber": 6,
    "parentChildSitNumber": 1,
    "district": "信義區"
  },
  {
    "type": "綜合零售賣場",
    "name": "BELLAVITA百貨",
    "address": "臺北市信義區松仁路28號",
    "longitude": 121.568291,
    "latitude": 25.03928,
    "admin": "BELLAVITA寶麗廣場",
    "allSitNumber": 14,
    "premiumSitNumber": 14,
    "goodSitNumber": 0,
    "normalSitNumber": 0,
    "needImproveSitNumber": 0,
    "accessibilitySitNumber": 4,
    "parentChildSitNumber": 2,
    "district": "信義區"
  },
  {
    "type": "機關",
    "name": "松山地政事務所",
    "address": "臺北市信義區莊敬路391巷11號",
    "longitude": 121.56589,
    "latitude": 25.028577,
    "admin": "臺北市松山地政事務所",
    "allSitNumber": 3,
    "premiumSitNumber": 3,
    "goodSitNumber": 0,
    "normalSitNumber": 0,
    "needImproveSitNumber": 0,
    "accessibilitySitNumber": 1,
    "parentChildSitNumber": 1,
    "district": "信義區"
  },
  {
    "type": "機關",
    "name": "臺北市立圖書館三興分館",
    "address": "臺北市信義區吳興街156巷6號4樓廁所",
    "longitude": 121.561168,
    "latitude": 25.029062,
    "admin": "臺北市立圖書館三興分館",
    "allSitNumber": 6,
    "premiumSitNumber": 6,
    "goodSitNumber": 0,
    "normalSitNumber": 0,
    "needImproveSitNumber": 0,
    "accessibilitySitNumber": 1,
    "parentChildSitNumber": 1,
    "district": "信義區"
  },
  {
    "type": "機關",
    "name": "信義區公所",
    "address": "臺北市信義區福德街86號9樓",
    "longitude": 121.566947,
    "latitude": 25.033289,
    "admin": "臺北市信義區公所",
    "allSitNumber": 35,
    "premiumSitNumber": 35,
    "goodSitNumber": 0,
    "normalSitNumber": 0,
    "needImproveSitNumber": 0,
    "accessibilitySitNumber": 12,
    "parentChildSitNumber": 1,
    "district": "信義區"
  },
  {
    "type": "機關",
    "name": "市政大樓",
    "address": "臺北市信義區市府路1號",
    "longitude": 121.563782,
    "latitude": 25.037525,
    "admin": "臺北市政府",
    "allSitNumber": 250,
    "premiumSitNumber": 28,
    "goodSitNumber": 222,
    "normalSitNumber": 0,
    "needImproveSitNumber": 0,
    "accessibilitySitNumber": 25,
    "parentChildSitNumber": 5,
    "district": "信義區"
  },
  {
    "type": "機關",
    "name": "信義公民會館",
    "address": "臺北市信義區松勤路50號",
    "longitude": 121.562184,
    "latitude": 25.031783,
    "admin": "信義區公所民政課",
    "allSitNumber": 8,
    "premiumSitNumber": 1,
    "goodSitNumber": 7,
    "normalSitNumber": 0,
    "needImproveSitNumber": 0,
    "accessibilitySitNumber": 1,
    "parentChildSitNumber": 1,
    "district": "信義區"
  },
  {
    "type": "機關",
    "name": "信義2號",
    "address": "臺北市信義區松山路664-10號(天寶宮)旁在松隆超市往前左邊巷子",
    "longitude": 121.578989,
    "latitude": 25.028,
    "admin": "臺北市政府環境保護局",
    "allSitNumber": 1,
    "premiumSitNumber": 0,
    "goodSitNumber": 1,
    "normalSitNumber": 0,
    "needImproveSitNumber": 0,
    "accessibilitySitNumber": 0,
    "parentChildSitNumber": 1,
    "district": "信義區"
  },
  {
    "type": "機關",
    "name": "信義5號",
    "address": "臺北市信義區基隆路一段49號左邊",
    "longitude": 121.561161,
    "latitude": 25.036467,
    "admin": "臺北市政府環境保護局",
    "allSitNumber": 1,
    "premiumSitNumber": 0,
    "goodSitNumber": 1,
    "normalSitNumber": 0,
    "needImproveSitNumber": 0,
    "accessibilitySitNumber": 0,
    "parentChildSitNumber": 1,
    "district": "信義區"
  },
  {
    "type": "機關",
    "name": "信義公園6號",
    "address": "臺北市信義區象山市立療養院後山永春亭",
    "longitude": 121.57467,
    "latitude": 25.027319,
    "admin": "臺北市政府環境保護局",
    "allSitNumber": 1,
    "premiumSitNumber": 0,
    "goodSitNumber": 1,
    "normalSitNumber": 0,
    "needImproveSitNumber": 0,
    "accessibilitySitNumber": 0,
    "parentChildSitNumber": 1,
    "district": "信義區"
  },
  {
    "type": "機關",
    "name": "信義公園8號",
    "address": "臺北市信義區象山逸賢亭旁",
    "longitude": 121.576028,
    "latitude": 25.026467,
    "admin": "臺北市政府環境保護局",
    "allSitNumber": 1,
    "premiumSitNumber": 0,
    "goodSitNumber": 1,
    "normalSitNumber": 0,
    "needImproveSitNumber": 0,
    "accessibilitySitNumber": 0,
    "parentChildSitNumber": 1,
    "district": "信義區"
  },
  {
    "type": "醫院",
    "name": "臺北醫學大學附設醫院",
    "address": "臺北市信義區吳興街252號",
    "longitude": 121.563637,
    "latitude": 25.026905,
    "admin": "臺北醫學大學附設醫院",
    "allSitNumber": 19,
    "premiumSitNumber": 19,
    "goodSitNumber": 0,
    "normalSitNumber": 0,
    "needImproveSitNumber": 0,
    "accessibilitySitNumber": 5,
    "parentChildSitNumber": 1,
    "district": "信義區"
  },
  {
    "type": "交通",
    "name": "捷運南港展覽館站(文湖線)",
    "address": "臺北市南港區南港路一段32號",
    "longitude": 121.617836,
    "latitude": 25.055429,
    "admin": "捷運南港展覽館站(文湖線)",
    "allSitNumber": 6,
    "premiumSitNumber": 6,
    "goodSitNumber": 0,
    "normalSitNumber": 0,
    "needImproveSitNumber": 0,
    "accessibilitySitNumber": 0,
    "parentChildSitNumber": 3,
    "district": "南港區"
  },
  {
    "type": "交通",
    "name": "捷運後山埤站(板南線)",
    "address": "臺北市南港區忠孝東路六段2號",
    "longitude": 121.582961,
    "latitude": 25.045248,
    "admin": "臺北大眾捷運股份有限公司捷運後山埤站",
    "allSitNumber": 3,
    "premiumSitNumber": 3,
    "goodSitNumber": 0,
    "normalSitNumber": 0,
    "needImproveSitNumber": 0,
    "accessibilitySitNumber": 0,
    "parentChildSitNumber": 1,
    "district": "南港區"
  },
  {
    "type": "交通",
    "name": "捷運昆陽站(板南線)",
    "address": "臺北市南港區忠孝東路六段451號",
    "longitude": 121.593268,
    "latitude": 25.050461,
    "admin": "臺北大眾捷運股份有限公司捷運昆陽站",
    "allSitNumber": 3,
    "premiumSitNumber": 3,
    "goodSitNumber": 0,
    "normalSitNumber": 0,
    "needImproveSitNumber": 0,
    "accessibilitySitNumber": 0,
    "parentChildSitNumber": 1,
    "district": "南港區"
  },
  {
    "type": "交通",
    "name": "捷運南港站(板南線)",
    "address": "臺北市南港區忠孝東路七段380號",
    "longitude": 121.606042,
    "latitude": 25.051814,
    "admin": "臺北大眾捷運股份有限公司捷運南港站",
    "allSitNumber": 5,
    "premiumSitNumber": 5,
    "goodSitNumber": 0,
    "normalSitNumber": 0,
    "needImproveSitNumber": 0,
    "accessibilitySitNumber": 0,
    "parentChildSitNumber": 1,
    "district": "南港區"
  },
  {
    "type": "交通",
    "name": "捷運南港展覽館站(板南線)",
    "address": "臺北市南港區研究院路一段1號",
    "longitude": 121.616646,
    "latitude": 25.055258,
    "admin": "臺北大眾捷運股份有限公司捷運板南線南港展覽館站",
    "allSitNumber": 8,
    "premiumSitNumber": 8,
    "goodSitNumber": 0,
    "normalSitNumber": 0,
    "needImproveSitNumber": 0,
    "accessibilitySitNumber": 1,
    "parentChildSitNumber": 1,
    "district": "南港區"
  },
  {
    "type": "交通",
    "name": "捷運南港軟體園區站(文湖線)",
    "address": "臺北市南港區經貿二路183號",
    "longitude": 121.615929,
    "latitude": 25.059942,
    "admin": "臺北大眾捷運股份有限公司捷運南港軟體園區站",
    "allSitNumber": 3,
    "premiumSitNumber": 3,
    "goodSitNumber": 0,
    "normalSitNumber": 0,
    "needImproveSitNumber": 0,
    "accessibilitySitNumber": 0,
    "parentChildSitNumber": 1,
    "district": "南港區"
  },
  {
    "type": "文化育樂場所",
    "name": "臺北流行音樂中心",
    "address": "臺北市南港區市民大道八段99號",
    "longitude": 121.598575,
    "latitude": 25.052654,
    "admin": "臺北流行音樂中心",
    "allSitNumber": 46,
    "premiumSitNumber": 46,
    "goodSitNumber": 0,
    "normalSitNumber": 0,
    "needImproveSitNumber": 0,
    "accessibilitySitNumber": 16,
    "parentChildSitNumber": 3,
    "district": "南港區"
  },
  {
    "type": "文化育樂場所",
    "name": "南港運動中心",
    "address": "臺北市南港區玉成街69號",
    "longitude": 121.581691,
    "latitude": 25.04901,
    "admin": "中國青年救國團",
    "allSitNumber": 12,
    "premiumSitNumber": 0,
    "goodSitNumber": 12,
    "normalSitNumber": 0,
    "needImproveSitNumber": 0,
    "accessibilitySitNumber": 2,
    "parentChildSitNumber": 1,
    "district": "南港區"
  },
  {
    "type": "公園",
    "name": "南港新新公園(署)",
    "address": "臺北市南港區南港路三段47巷旁",
    "longitude": 121.589697,
    "latitude": 25.051289,
    "admin": "工務局公園路燈工程管理處",
    "allSitNumber": 4,
    "premiumSitNumber": 4,
    "goodSitNumber": 0,
    "normalSitNumber": 0,
    "needImproveSitNumber": 0,
    "accessibilitySitNumber": 1,
    "parentChildSitNumber": 1,
    "district": "南港區"
  },
  {
    "type": "綜合零售賣場",
    "name": "CITYLINK南港店",
    "address": "臺北市南港區忠孝東路七段369號",
    "longitude": 121.607221,
    "latitude": 25.052252,
    "admin": "潤泰創新國際股份有限公司CITYLINK南港店",
    "allSitNumber": 45,
    "premiumSitNumber": 45,
    "goodSitNumber": 0,
    "normalSitNumber": 0,
    "needImproveSitNumber": 0,
    "accessibilitySitNumber": 17,
    "parentChildSitNumber": 1,
    "district": "南港區"
  },
  {
    "type": "機關",
    "name": "臺北市立圖書館南港分館",
    "address": "臺北市南港區南港路一段350號",
    "longitude": 121.607951,
    "latitude": 25.053795,
    "admin": "臺北市立圖書館南港分館",
    "allSitNumber": 7,
    "premiumSitNumber": 7,
    "goodSitNumber": 0,
    "normalSitNumber": 0,
    "needImproveSitNumber": 0,
    "accessibilitySitNumber": 1,
    "parentChildSitNumber": 1,
    "district": "南港區"
  },
  {
    "type": "機關",
    "name": "臺北市立圖書館舊莊分館",
    "address": "臺北市南港區舊莊路91巷11 號2樓",
    "longitude": 121.619436,
    "latitude": 25.041321,
    "admin": "臺北市立圖書館舊莊分館",
    "allSitNumber": 6,
    "premiumSitNumber": 6,
    "goodSitNumber": 0,
    "normalSitNumber": 0,
    "needImproveSitNumber": 0,
    "accessibilitySitNumber": 0,
    "parentChildSitNumber": 1,
    "district": "南港區"
  },
  {
    "type": "機關",
    "name": "南港1號",
    "address": "臺北市南港區研究院路3段20巷口凌雲新村",
    "longitude": 121.615446,
    "latitude": 25.034678,
    "admin": "臺北市政府環境保護局",
    "allSitNumber": 1,
    "premiumSitNumber": 0,
    "goodSitNumber": 1,
    "normalSitNumber": 0,
    "needImproveSitNumber": 0,
    "accessibilitySitNumber": 0,
    "parentChildSitNumber": 1,
    "district": "南港區"
  },
  {
    "type": "機關",
    "name": "南港2號",
    "address": "臺北市南港區研究院路二段130號斜對面胡適公園右側",
    "longitude": 121.616179,
    "latitude": 25.038725,
    "admin": "臺北市政府環境保護局",
    "allSitNumber": 1,
    "premiumSitNumber": 0,
    "goodSitNumber": 1,
    "normalSitNumber": 0,
    "needImproveSitNumber": 0,
    "accessibilitySitNumber": 0,
    "parentChildSitNumber": 1,
    "district": "南港區"
  },
  {
    "type": "醫院",
    "name": "聯合醫院忠孝院區",
    "address": "臺北市南港區同德路87號",
    "longitude": 121.586098,
    "latitude": 25.046249,
    "admin": "臺北市立聯合醫院忠孝院區",
    "allSitNumber": 7,
    "premiumSitNumber": 5,
    "goodSitNumber": 2,
    "normalSitNumber": 0,
    "needImproveSitNumber": 0,
    "accessibilitySitNumber": 2,
    "parentChildSitNumber": 1,
    "district": "南港區"
  },
  {
    "type": "交通",
    "name": "萬華車站(署)",
    "address": "臺北市萬華區康定路321號",
    "longitude": 121.501321,
    "latitude": 25.033445,
    "admin": "交通部臺灣鐵路管理局臺北運務段萬華車站",
    "allSitNumber": 7,
    "premiumSitNumber": 7,
    "goodSitNumber": 0,
    "normalSitNumber": 0,
    "needImproveSitNumber": 0,
    "accessibilitySitNumber": 2,
    "parentChildSitNumber": 1,
    "district": "萬華區"
  },
  {
    "type": "交通",
    "name": "洛陽停車場",
    "address": "臺北市萬華區環河南路一段1號",
    "longitude": 121.505376,
    "latitude": 25.047595,
    "admin": "洛陽停車場",
    "allSitNumber": 17,
    "premiumSitNumber": 0,
    "goodSitNumber": 17,
    "normalSitNumber": 0,
    "needImproveSitNumber": 0,
    "accessibilitySitNumber": 4,
    "parentChildSitNumber": 1,
    "district": "萬華區"
  },
  {
    "type": "交通",
    "name": "捷運龍山寺站(板南線)",
    "address": "臺北市萬華區西園路一段153號",
    "longitude": 121.499579,
    "latitude": 25.035449,
    "admin": "捷運龍山寺站",
    "allSitNumber": 3,
    "premiumSitNumber": 3,
    "goodSitNumber": 0,
    "normalSitNumber": 0,
    "needImproveSitNumber": 0,
    "accessibilitySitNumber": 0,
    "parentChildSitNumber": 1,
    "district": "萬華區"
  },
  {
    "type": "交通",
    "name": "雙園國中地下停車場",
    "address": "臺北市萬華區西園路二段320巷55弄3號地下",
    "longitude": 121.491177,
    "latitude": 25.027622,
    "admin": "臺北市停車管理工程處雙園國中地下停車場",
    "allSitNumber": 3,
    "premiumSitNumber": 3,
    "goodSitNumber": 0,
    "normalSitNumber": 0,
    "needImproveSitNumber": 0,
    "accessibilitySitNumber": 0,
    "parentChildSitNumber": 1,
    "district": "萬華區"
  },
  {
    "type": "交通",
    "name": "萬華車站地下停車場",
    "address": "臺北市萬華區康定路382號B1",
    "longitude": 121.499701,
    "latitude": 25.033488,
    "admin": "好停企業有限公司",
    "allSitNumber": 3,
    "premiumSitNumber": 3,
    "goodSitNumber": 0,
    "normalSitNumber": 0,
    "needImproveSitNumber": 0,
    "accessibilitySitNumber": 0,
    "parentChildSitNumber": 1,
    "district": "萬華區"
  },
  {
    "type": "公園",
    "name": "青年公園(署)",
    "address": "臺北市萬華區水源路199號",
    "longitude": 121.507039,
    "latitude": 25.022201,
    "admin": "公園路燈工程管理處青年公園管理所",
    "allSitNumber": 17,
    "premiumSitNumber": 17,
    "goodSitNumber": 0,
    "normalSitNumber": 0,
    "needImproveSitNumber": 0,
    "accessibilitySitNumber": 1,
    "parentChildSitNumber": 6,
    "district": "萬華區"
  },
  {
    "type": "公園",
    "name": "和平青草園",
    "address": "臺北市萬華區艋舺大道西園路二段交叉口",
    "longitude": 121.4981,
    "latitude": 25.0328,
    "admin": "公園路燈工程管理處青年公園管理所",
    "allSitNumber": 3,
    "premiumSitNumber": 0,
    "goodSitNumber": 3,
    "normalSitNumber": 0,
    "needImproveSitNumber": 0,
    "accessibilitySitNumber": 0,
    "parentChildSitNumber": 1,
    "district": "萬華區"
  },
  {
    "type": "市場",
    "name": "公有環南綜合市場(署)",
    "address": "臺北市萬華區環河南路二段245號",
    "longitude": 121.489814,
    "latitude": 25.029942,
    "admin": "臺北市市場處公有環南綜合市場",
    "allSitNumber": 53,
    "premiumSitNumber": 53,
    "goodSitNumber": 0,
    "normalSitNumber": 0,
    "needImproveSitNumber": 0,
    "accessibilitySitNumber": 14,
    "parentChildSitNumber": 2,
    "district": "萬華區"
  },
  {
    "type": "機關",
    "name": "國稅局萬華稽徵所",
    "address": "臺北市萬華區萬大路90巷1號",
    "longitude": 121.499932,
    "latitude": 25.030197,
    "admin": "財政部臺北國稅局萬華稽徵所",
    "allSitNumber": 8,
    "premiumSitNumber": 8,
    "goodSitNumber": 0,
    "normalSitNumber": 0,
    "needImproveSitNumber": 0,
    "accessibilitySitNumber": 1,
    "parentChildSitNumber": 1,
    "district": "萬華區"
  },
  {
    "type": "機關",
    "name": "臺北市立圖書館西園分館",
    "address": "臺北市萬華區興寧街6號",
    "longitude": 121.50173,
    "latitude": 25.032201,
    "admin": "臺北市立圖書館西園分館",
    "allSitNumber": 8,
    "premiumSitNumber": 8,
    "goodSitNumber": 0,
    "normalSitNumber": 0,
    "needImproveSitNumber": 0,
    "accessibilitySitNumber": 0,
    "parentChildSitNumber": 1,
    "district": "萬華區"
  },
  {
    "type": "機關",
    "name": "萬華1號",
    "address": "臺北市萬華區莒光路183巷9弄18號旁",
    "longitude": 121.502545,
    "latitude": 25.030978,
    "admin": "臺北市政府環境保護局",
    "allSitNumber": 1,
    "premiumSitNumber": 0,
    "goodSitNumber": 1,
    "normalSitNumber": 0,
    "needImproveSitNumber": 0,
    "accessibilitySitNumber": 0,
    "parentChildSitNumber": 1,
    "district": "萬華區"
  },
  {
    "type": "機關",
    "name": "萬華3號",
    "address": "臺北市萬華區武成街70巷21號旁",
    "longitude": 121.494998,
    "latitude": 25.019703,
    "admin": "臺北市政府環境保護局",
    "allSitNumber": 1,
    "premiumSitNumber": 0,
    "goodSitNumber": 1,
    "normalSitNumber": 0,
    "needImproveSitNumber": 0,
    "accessibilitySitNumber": 0,
    "parentChildSitNumber": 1,
    "district": "萬華區"
  }
]